"","ODS_Code","Role","Name","geo_match","LAT","LON"
"1","Y00082","GP PRACTICE","(FRACTURE CLINIC) NORTH OOH","PostCode",52.2360513337348,-0.88384395731623
"2","P87657","GP PRACTICE","(IRLAM) SALFORD CARE CTRS MEDICAL PRACTI","UPRN",53.4489508,-2.417447
"3","Y05381","GP PRACTICE","0-19 EAST CHESHIRE HEALTH VISITORS","PostCode",53.1904554805427,-2.44631684535156
"4","Y04082","GP PRACTICE","0-19 PUBLIC HEALTH SERVICE HARTLEPOOL","UPRN",54.6857925,-1.2140195
"5","Y07341","GP PRACTICE","0-25 HEALTH AND WELLBEING KNOWSLEY","UPRN",53.4220906,-2.8584305
"6","Y00364","GP PRACTICE","1 TO 1 CENTRE","UPRN",55.0327551,-1.5064611
"7","P87620","GP PRACTICE","1/MONTON MEDICAL PRACTICE","PostCode",53.4918601668825,-2.35697799081625
"8","P87004","GP PRACTICE","1/SALFORD MEDICAL PRACTICE","UPRN",53.4872231,-2.2945758
"9","N84035","GP PRACTICE","15 SEFTON ROAD","UPRN",53.4710782,-3.0008391
"10","L81051","GP PRACTICE","168 MEDICAL GROUP","UPRN",51.3460081,-2.9571159
"11","W00074","GP PRACTICE","17 HIGH STREET","UPRN",53.2559841,-4.3121719
"12","W97067","GP PRACTICE","180 KINGS ROAD","UPRN",51.4859722,-3.199428
"13","K81645","GP PRACTICE","240 WEXHAM ROAD","PostCode",51.5168977081477,-0.578398625770612
"14","P87024","GP PRACTICE","3/SPRINGFIELD HOUSE MEDICAL PRACTICE","UPRN",53.4805483,-2.3616429
"15","Y04036","GP PRACTICE","360 CARE LIMITED","UPRN",53.5678529,-0.109427
"16","Y00186","GP PRACTICE","3D MEDICAL CENTRE","UPRN",53.5730323,-2.4438356
"17","Y06494","GP PRACTICE","3VH RHEUMATOLOGY","PostCode",53.3237090853442,-1.91118909643127
"18","K82070","GP PRACTICE","3W HEALTH","UPRN",51.8979986,-0.7190754
"19","W97063","GP PRACTICE","4 CORPORATION ROAD","UPRN",51.4643481,-3.1707895
"20","N81645","GP PRACTICE","4 SEASONS MEDICAL CENTRE","UPRN",53.4046057,-2.5882999
"21","N84001","GP PRACTICE","42 KINGSWAY","UPRN",53.4810059,-3.0195017
"22","Y06243","GP PRACTICE","4DONCASTER PCN","UPRN",53.4948268,-1.1459759
"23","Y06208","GP PRACTICE","7 DAY GP SERVICE","PostCode",53.6292629670387,-3.0113558041842
"24","W95633","GP PRACTICE","74 MONK STREET","UPRN",51.7121557,-3.4467799
"25","Y06318","GP PRACTICE","A & E NON MEDICAL PRESCRIBERS","PostCode",53.5539548694509,-2.42989350620025
"26","Y02504","GP PRACTICE","A&E GPS","UPRN",53.5577546,-2.6290904
"27","Y07861","GP PRACTICE","A31 GROUP PCN HUB","UPRN",51.1537363,-0.9669584
"28","Y07737","GP PRACTICE","A34 PCN HUB","PostCode",51.4057932753949,-1.3277726192767
"29","Y04346","GP PRACTICE","AACT 1","UPRN",53.8990903,-1.9650862
"30","Y00913","GP PRACTICE","ABACUS ED","UPRN",53.4035289,-2.9822868
"31","F82670","GP PRACTICE","ABBAMOOR SURGERY","UPRN",51.6062713,0.2249271
"32","P81714","GP PRACTICE","ABBEY DALE MEDICAL CENTRE","PostCode",53.788177376977,-3.0243433391046
"33","F81095","GP PRACTICE","ABBEY FIELD MEDICAL CENTRE","UPRN",51.8778675,0.8993259
"34","B86068","GP PRACTICE","ABBEY GRANGE MEDICAL PRACTICE","UPRN",53.818047,-1.6009496
"35","K83032","GP PRACTICE","ABBEY HOUSE MEDICAL PRACTICE","UPRN",52.2603353,-1.1607094
"36","J83035","GP PRACTICE","ABBEY MEADS MEDICAL PRACT","UPRN",51.5978241,-1.7927746
"37","F83019","GP PRACTICE","ABBEY MEDICAL CENTRE","UPRN",51.5379235,-0.1851067
"38","F82625","GP PRACTICE","ABBEY MEDICAL CENTRE","UPRN",51.5413234,0.0791959
"39","C84065","GP PRACTICE","ABBEY MEDICAL CENTRE","UPRN",52.9328381,-1.2200495
"40","K81081","GP PRACTICE","ABBEY MEDICAL CENTRE","UPRN",51.4532508,-0.9826164
"41","M84036","GP PRACTICE","ABBEY MEDICAL CENTRE","UPRN",52.3432674,-1.577337
"42","C84037","GP PRACTICE","ABBEY MEDICAL GROUP","UPRN",53.1006928,-1.1191912
"43","C83051","GP PRACTICE","ABBEY MEDICAL PRACTICE","UPRN",53.2305902,-0.5306663
"44","K83047","GP PRACTICE","ABBEY MEDICAL PRACTICE","UPRN",52.2984875,-0.6821668
"45","M81094","GP PRACTICE","ABBEY MEDICAL PRACTICE","UPRN",52.0910543,-1.951003
"46","F84111","GP PRACTICE","ABBEY ROAD MEDICAL PRACTICE","UPRN",51.5347855,0.0059085
"47","A82010","GP PRACTICE","ABBEY ROAD SURGERY","PostCode",54.1099319044201,-3.22478196827571
"48","E82042","GP PRACTICE","ABBEY ROAD SURGERY","UPRN",51.6837612,-0.0315506
"49","L83101","GP PRACTICE","ABBEY SURGERY","UPRN",50.5479777,-4.1481916
"50","A91120","GP PRACTICE","ABBEY WOOD MEDICAL CENTRE","PostCode",51.5028291200162,-2.55906209817235
"51","G83031","GP PRACTICE","ABBEY WOOD SURGERY","UPRN",51.4969176,0.1160114
"52","G83631","GP PRACTICE","ABBEYSLADE PMS (DR CHAND)","UPRN",51.4879483,0.1075352
"53","C83617","GP PRACTICE","ABBEYVIEW SURGERY","UPRN",52.6745708,-0.1650988
"54","J82145","GP PRACTICE","ABBEYWELL SURGERY","UPRN",50.989108,-1.5026738
"55","M83059","GP PRACTICE","ABBOTS BROMLEY SURGERY","UPRN",52.8204674,-1.8807682
"56","E82105","GP PRACTICE","ABBOTSWOOD MEDICAL CENTRE","UPRN",51.7010401,-0.4032142
"57","M81046","GP PRACTICE","ABBOTTSWOOD MEDICAL CENTRE","UPRN",52.1062232,-2.0761887
"58","Y07858","GP PRACTICE","ABC PCN HUB","UPRN",51.2683983,0.5222888
"59","W00005","GP PRACTICE","ABER MEDICAL CENTRE","PostCode",51.5959375844391,-3.27051623117915
"60","N82054","GP PRACTICE","ABERCROMBY FAMILY PRACTICE","UPRN",53.3990488,-2.9617442
"61","W95087","GP PRACTICE","ABERCWMBOI MEDICAL PRACTICE","PostCode",51.6896501564247,-3.41067856325274
"62","W95042","GP PRACTICE","ABERCYNON MEDICAL CENTRE","UPRN",51.6458144,-3.3272498
"63","F84698","GP PRACTICE","ABERFELDY PRACTICE","UPRN",51.5123213,-0.0046339
"64","W00103","GP PRACTICE","ABERGELE CLINIC","UPRN",53.2841324,-3.5854036
"65","F85029","GP PRACTICE","ABERNETHY HOUSE SURGERY","UPRN",51.6543951,-0.0811668
"66","W93075","GP PRACTICE","ABERTILLERY GROUP","UPRN",51.7324987,-3.1347788
"67","Y07032","GP PRACTICE","ABH MANCHESTER & TRAFFORD CDS","UPRN",53.7332391,-2.4555506
"68","Y07683","GP PRACTICE","ABINGDON & DISTRICT PCN HUB","UPRN",51.6695833,-1.3029364
"69","Y07682","GP PRACTICE","ABINGDON CENTRAL PCN HUB","UPRN",51.6720618,-1.2829563
"70","N82086","GP PRACTICE","ABINGDON FAMILY HEALTH CARE CENTRE","UPRN",53.4403102,-2.9421862
"71","A91108","GP PRACTICE","ABINGDON MEDICAL CENTRE","PostCode",51.6930810105451,-1.29245037401114
"72","K83043","GP PRACTICE","ABINGTON MEDICAL CENTRE","UPRN",52.253239,-0.866639
"73","K83029","GP PRACTICE","ABINGTON PARK SURGERY","UPRN",52.2426167,-0.8690333
"74","W00148","GP PRACTICE","ABMU CONTINENCE SERVICE","UPRN",51.6721245,-4.0480245
"75","Y04219","GP PRACTICE","ABOUT HEALTH","PostCode",53.7332208243111,-2.45555075851746
"76","Y03742","GP PRACTICE","ABOUT HEALTH LN DERMATOLOGY","PostCode",53.7332208243111,-2.45555075851746
"77","Y00209","GP PRACTICE","ABOUT HEALTH LTD","PostCode",53.7332208243111,-2.45555075851746
"78","Y06063","GP PRACTICE","ABOUT HEALTH LTD","PostCode",53.7332208243111,-2.45555075851746
"79","F81184","GP PRACTICE","ABRIDGE SURGERY","UPRN",51.6533231,0.1232209
"80","W00187","GP PRACTICE","ABUHB RISCA PODIATRY","UPRN",51.6159834,-3.1087214
"81","Y03943","GP PRACTICE","ACAH CENTRAL & WEST","PostCode",50.4717625535213,-4.74081788645079
"82","Y03844","GP PRACTICE","ACAH EAST","PostCode",50.4717625535213,-4.74081788645079
"83","Y00504","GP PRACTICE","ACCIDENT & EMERGENCY DEPT","UPRN",53.5539733,-2.4298913
"84","Y06134","GP PRACTICE","ACCIDENT AND EMERGENCY WWL","PostCode",53.5577376298872,-2.629091125145
"85","Y08701","GP PRACTICE","ACCLAIM NHS PCN HUB","UPRN",53.7563361,-0.2670745
"86","Y01960","GP PRACTICE","ACCRINGTON MINOR INJURIES UNIT","UPRN",53.7523473,-2.384874
"87","Y02605","GP PRACTICE","ACCRINGTON VICTORIA GP PRACTICE","UPRN",53.7523473,-2.384874
"88","Y04347","GP PRACTICE","ACCT 2","UPRN",53.8979547,-1.9627281
"89","Y06422","GP PRACTICE","ACE LTD OOH","PostCode",51.626037071609,0.296443716485176
"90","Y06479","GP PRACTICE","ACHE CLINIC","PostCode",52.7739655310632,-1.20590752356778
"91","Y08178","GP PRACTICE","ACHE LEICESTER","UPRN",52.7425937,-1.3606698
"92","Y08175","GP PRACTICE","ACHE POPLAR BUCKS","UPRN",51.8224078,-0.7944056
"93","Y08176","GP PRACTICE","ACHE PUTNOE BEDS","UPRN",52.1480933,-0.439084
"94","Y08177","GP PRACTICE","ACHE SHORTSTOWN BEDS","UPRN",52.1113601,-0.4298399
"95","Y03641","GP PRACTICE","ACHIEVE BOLTON RECOVERY SERVICE","UPRN",53.5724195,-2.4216826
"96","A81004","GP PRACTICE","ACKLAM MEDICAL CENTRE","UPRN",54.5393222,-1.2621812
"97","D82104","GP PRACTICE","ACLE MEDICAL PARTNERSHIP","UPRN",52.6414497,1.5488165
"98","Y05799","GP PRACTICE","ACMH-INTENSIVE HOME TREATMENT TEAM","PostCode",53.8962051448131,-1.95951577503107
"99","M85736","GP PRACTICE","ACOCKS GREEN MEDICAL CENTRE","UPRN",52.4500807,-1.8302376
"100","H84007","GP PRACTICE","ACORN GROUP PRACTICE","UPRN",51.4467139,-0.32909
"101","E86632","GP PRACTICE","ACORN MEDICAL CENTRE","UPRN",51.5419915,-0.4507105
"102","C84679","GP PRACTICE","ACORN MEDICAL PRACTICE","PostCode",53.146978503706,-1.20251462136024
"103","D81633","GP PRACTICE","ACORN SURGERY","UPRN",52.3453722,-0.1765372
"104","Y03142","GP PRACTICE","ACORNS CHILDREN'S HOSPICE","UPRN",52.1706694,-2.2140719
"105","Y08169","GP PRACTICE","ACORNS CHILDRENS HOSPICE BIRMINGHAM","UPRN",52.434454,-1.9392168
"106","Y08444","GP PRACTICE","ACORNS CHILDRENS HOSPICE SSOT ICB","PostCode",52.5649030692337,-1.97592473460681
"107","Y03452","GP PRACTICE","ACORNS CHILDRENS HOSPICE WALSALL","PostCode",52.5649030692337,-1.97592473460681
"108","E86041","GP PRACTICE","ACRE SURGERY","UPRN",51.6044684,-0.4115301
"109","E86615","GP PRACTICE","ACREFIELD SURGERY","UPRN",51.561343,-0.3814675
"110","Y01915","GP PRACTICE","ACTIVE RECOVERY (CICS)","PostCode",53.4098013387943,-1.45596601365004
"111","E85687","GP PRACTICE","ACTON LANE MEDICAL CENTRE","UPRN",51.5016845,-0.2654484
"112","Y07585","GP PRACTICE","ACTON PCN EAH","UPRN",51.5073917,-0.2737768
"113","E85617","GP PRACTICE","ACTON TOWN MEDICAL CENTRE","UPRN",51.5029585,-0.2811344
"114","Y03073","GP PRACTICE","ACUTE ADULT MENTAL HEALTH (WEST)","UPRN",53.5585415,-0.0666611
"115","Y07002","GP PRACTICE","ACUTE AND URGENT CARE","UPRN",53.0005037,-2.210831
"116","Y01063","GP PRACTICE","ACUTE GP REFERRAL SERVICE","UPRN",50.4167068,-4.1137122
"117","Y07996","GP PRACTICE","ACUTE GP'S","PostCode",50.4717625535213,-4.74081788645079
"118","Y07199","GP PRACTICE","ACUTE LIAISON PSYCHIATRY SERVICE (ALPS)","UPRN",53.8059949,-1.7946998
"119","Y07309","GP PRACTICE","ACUTE MEDICAL UNIT (RBH)","UPRN",50.7474718,-1.8205122
"120","Y03766","GP PRACTICE","ACUTE MEDICINE DIR.","UPRN",51.4530225,-0.0179164
"121","Y03074","GP PRACTICE","ACUTE MENTAL HEALTH","UPRN",53.5510913,-0.0738274
"122","Y06873","GP PRACTICE","ACUTE PAIN SERVICE","UPRN",53.5044321,-2.5122576
"123","W00159","GP PRACTICE","ACUTE VISITING SERVICE","PostCode",51.8127178963333,-4.96524689733643
"124","C81026","GP PRACTICE","ADAM HOUSE MEDICAL CENTRE","UPRN",52.9226986,-1.2936353
"125","Y06058","GP PRACTICE","ADDACTION WIGAN & LEIGH (LEIGH)","PostCode",53.494488575527,-2.50958700909283
"126","Y02226","GP PRACTICE","ADDACTION WIGAN & LEIGH (WIGAN)","PostCode",53.5459912712225,-2.63558740164796
"127","M83661","GP PRACTICE","ADDERLEY GREEN SURGERY","PostCode",52.9916944561041,-2.13551139528727
"128","Y01957","GP PRACTICE","ADDICTIONS SERVICE","UPRN",54.9737311,-1.6073066
"129","B83620","GP PRACTICE","ADDINGHAM SURGERY","UPRN",53.9430053,-1.8812914
"130","E83044","GP PRACTICE","ADDINGTON MEDICAL CENTRE","UPRN",51.6495121,-0.1774341
"131","H83028","GP PRACTICE","ADDINGTON MEDICAL PRACTICE","UPRN",51.3434423,-0.0182819
"132","G84017","GP PRACTICE","ADDINGTON ROAD SURGERY","UPRN",51.3699674,-0.0026681
"133","F81181","GP PRACTICE","ADDISON HOUSE - HAQUE PRACTICE","UPRN",51.7708964,0.0890059
"134","F86607","GP PRACTICE","ADDISON ROAD MEDICAL PRACTICE","UPRN",51.5828353,-0.0100625
"135","Y06011","GP PRACTICE","ADEL BECK SCH","PostCode",53.8528028160137,-1.57214321965469
"136","F83020","GP PRACTICE","ADELAIDE MEDICAL CENTRE","UPRN",51.5435498,-0.1612311
"137","J82053","GP PRACTICE","ADELAIDE MEDICAL CENTRE","UPRN",51.2085348,-1.4752612
"138","L83651","GP PRACTICE","ADELAIDE STREET SURGERY","UPRN",50.3707524,-4.155435
"139","P81042","GP PRACTICE","ADELAIDE STREET SURGERY","UPRN",53.8208118,-3.0443527
"140","Y08600","GP PRACTICE","ADHD 360 - DEVON ICB","UPRN",53.2700045,-0.4961425
"141","Y07754","GP PRACTICE","ADHD ADULT SERVICE - WELLBEING","UPRN",51.9231074,0.9203387
"142","Y07394","GP PRACTICE","ADHD AND AUTISM TEAM (874607)","UPRN",53.2605996,-2.146027
"143","Y08511","GP PRACTICE","ADHD ASSESSMENT AND TREATMENT SERVICE","PostCode",51.6042194712011,-0.416166424218259
"144","Y03117","GP PRACTICE","ADHD CLINIC","UPRN",53.8041605,-3.0483271
"145","Y05832","GP PRACTICE","ADHD CLINIC","PostCode",51.5320273813074,-0.0630004276527983
"146","Y08407","GP PRACTICE","ADHD SEFTON","UPRN",53.4728636,-3.0256192
"147","Y04362","GP PRACTICE","ADHD SERVICE","UPRN",51.5957289,-0.3806179
"148","Y08775","GP PRACTICE","ADHD SERVICE","PostCode",52.9271797874673,-1.18394752009711
"149","Y05680","GP PRACTICE","ADHD SERVICE - CLINICAL PARTNERS","PostCode",51.0450303979547,-2.17217987579363
"150","Y06146","GP PRACTICE","ADHD SPECIALIST NURSING TEAM","PostCode",52.4361446913369,-1.93814670433697
"151","Y05213","GP PRACTICE","ADHD TRANSITIONS","PostCode",52.4224289096626,-1.44554901228061
"152","Y07988","GP PRACTICE","ADHD360","UPRN",53.2700045,-0.4961425
"153","Y07643","GP PRACTICE","ADKINS OPTICIANS","UPRN",52.3771085,1.1084937
"154","E83600","GP PRACTICE","ADLER JS-THE SURGERY","UPRN",51.5753336,-0.1959441
"155","P81740","GP PRACTICE","ADLINGTON MEDICAL CENTRE","UPRN",53.617955,-2.5967563
"156","Y08771","GP PRACTICE","ADMISSION AVOIDANCE TEAM","PostCode",50.4717625535213,-4.74081788645079
"157","P88014","GP PRACTICE","ADSHALL ROAD MEDICAL PRAC","UPRN",53.3901833,-2.1929658
"158","Y07443","GP PRACTICE","ADULT & OLDER PEOPLE CMHT & EIT","UPRN",53.2760812,-2.9011439
"159","Y07437","GP PRACTICE","ADULT & OLDER PEOPLE CMHT - CHESTER","UPRN",53.2115595,-2.8988262
"160","Y07426","GP PRACTICE","ADULT & OLDER PEOPLE CMHT - CREWE","UPRN",53.0975993,-2.4458982
"161","Y07427","GP PRACTICE","ADULT & OLDER PEOPLE CMHT - WINSFORD","PostCode",53.1925452318367,-2.52870311535371
"162","Y03858","GP PRACTICE","ADULT ADHD","PostCode",50.4717625535213,-4.74081788645079
"163","Y07446","GP PRACTICE","ADULT ADHD","UPRN",53.3806289,-3.0266491
"164","Y07353","GP PRACTICE","ADULT ADHD ASSESSMENT SERVICE","UPRN",50.3910291,-4.1619121
"165","Y08286","GP PRACTICE","ADULT ADHD ASSESSMENT TEAM","UPRN",53.0168759,-2.1817987
"166","Y06765","GP PRACTICE","ADULT ADHD CHESHIRE","PostCode",53.5131869338299,-2.94494956322036
"167","Y06850","GP PRACTICE","ADULT ADHD CHESHIRE PRIORY SERVICE","UPRN",53.3664302,-2.3271177
"168","Y07042","GP PRACTICE","ADULT ADHD HALTON","UPRN",53.4295295,-2.6068574
"169","Y06112","GP PRACTICE","ADULT ADHD HALTON NMP","PostCode",53.4295138354952,-2.60686235736115
"170","Y07044","GP PRACTICE","ADULT ADHD KNOWSLEY","UPRN",53.4295295,-2.6068574
"171","Y06284","GP PRACTICE","ADULT ADHD KNOWSLEY NMP","PostCode",53.4295138354952,-2.60686235736115
"172","Y08126","GP PRACTICE","ADULT ADHD SERVICE","UPRN",51.8873549,-2.0522814
"173","Y07880","GP PRACTICE","ADULT ADHD SERVICE","UPRN",51.7042997,0.1239567
"174","Y06900","GP PRACTICE","ADULT ADHD SERVICE","UPRN",52.1916394,-2.2170252
"175","Y03619","GP PRACTICE","ADULT ADHD SERVICE","UPRN",51.7604489,-1.2155139
"176","Y05002","GP PRACTICE","ADULT ADHD SERVICE NMP 1","UPRN",51.450203,-0.9530828
"177","Y03400","GP PRACTICE","ADULT ADHD SERVICES","UPRN",51.3473389,-1.9915729
"178","Y07043","GP PRACTICE","ADULT ADHD ST HELENS","UPRN",53.4295295,-2.6068574
"179","Y06286","GP PRACTICE","ADULT ADHD ST HELENS NMP","PostCode",53.4295138354952,-2.60686235736115
"180","Y05340","GP PRACTICE","ADULT ADHD WARRINGTON","UPRN",53.4283548,-2.6084543
"181","Y06285","GP PRACTICE","ADULT ADHD WIGAN","PostCode",53.5349193979865,-2.61458528757514
"182","Y07879","GP PRACTICE","ADULT ADHD, MSE","UPRN",51.7764404,0.460957
"183","Y07720","GP PRACTICE","ADULT AND OLDER PEOPLE EAST","UPRN",53.0975993,-2.4458982
"184","Y07442","GP PRACTICE","ADULT CLDT TRAFFORD","UPRN",53.4251271,-2.3200009
"185","Y07436","GP PRACTICE","ADULT CLDT WIRRAL","PostCode",53.3800265999355,-3.02653056544335
"186","Y07726","GP PRACTICE","ADULT CMHT JOCELYN SOLLY","PostCode",53.2637879821403,-2.15268289322679
"187","Y05244","GP PRACTICE","ADULT COMMUNITY NURSING","PostCode",51.5033269693465,-0.0867966785171457
"188","Y04317","GP PRACTICE","ADULT COMMUNITY NURSING","PostCode",51.2410138591104,-0.607462497246616
"189","Y03900","GP PRACTICE","ADULT COMMUNITY NURSING","UPRN",51.5052426,-0.3577208
"190","Y03968","GP PRACTICE","ADULT COMMUNITY NURSING SERVICE","UPRN",53.9938218,-1.517579
"191","Y04845","GP PRACTICE","ADULT COMMUNITY SERVICES","UPRN",52.5997412,-2.0955515
"192","Y08517","GP PRACTICE","ADULT CYSTIC FIBROSIS VIRTUAL SERVICE","UPRN",53.8206752,-3.0162746
"193","Y02670","GP PRACTICE","ADULT DRUG & ALCOHOL SERVICE","UPRN",53.0291419,-2.1785703
"194","Y04716","GP PRACTICE","ADULT LD COMM SERVICES NW","PostCode",52.5269858303396,-1.47770842147996
"195","Y03353","GP PRACTICE","ADULT LEARNING DISABILITY SERVICE","PostCode",52.4446845589639,-1.48444912058991
"196","Y05347","GP PRACTICE","ADULT MENTAL HEALTH COMMUNITY","UPRN",53.0637789,-2.2106726
"197","Y05360","GP PRACTICE","ADULT MENTAL HEALTH COMMUNITY","UPRN",53.0005037,-2.210831
"198","Y05359","GP PRACTICE","ADULT MENTAL HEALTH COMMUNITY","UPRN",53.0734597,-2.0410025
"199","Y05348","GP PRACTICE","ADULT MENTAL HEALTH COMMUNITY","UPRN",53.0203192,-2.1815299
"200","Y05386","GP PRACTICE","ADULT MENTAL HEALTH COMMUNITY","PostCode",53.027704239062,-2.17094611343385
"201","Y04129","GP PRACTICE","ADULT MH - FORENSIC","PostCode",50.4717625535213,-4.74081788645079
"202","Y04197","GP PRACTICE","ADULT MH - HTT","PostCode",50.4717625535213,-4.74081788645079
"203","Y07925","GP PRACTICE","ADULT MH - REHAB","PostCode",50.4717625535213,-4.74081788645079
"204","Y05390","GP PRACTICE","ADULT MH COMMUNITY - ACCESS TEAM","PostCode",53.0004838932971,-2.21083156270909
"205","Y05426","GP PRACTICE","ADULT MH COMMUNITY - LYMEBROOK","PostCode",53.0387063892003,-2.23899641597877
"206","Y05427","GP PRACTICE","ADULT MH COMMUNITY - SUTHERLAND CENTRE","PostCode",52.9790139462838,-2.13264193896569
"207","Y04124","GP PRACTICE","ADULT MH- EIT","PostCode",50.4717625535213,-4.74081788645079
"208","Y02405","GP PRACTICE","ADULT PSYCH - RUGBY","UPRN",52.3652915,-1.2590182
"209","Y03302","GP PRACTICE","ADULT REHAB SERVICES","UPRN",52.4486054,-1.4799779
"210","Y00131","GP PRACTICE","ADULT SICKLE CELL","UPRN",51.5877877,-0.0030472
"211","Y04087","GP PRACTICE","ADULT SOUTH COMMUNITYSERVICES MANCHESTER","UPRN",53.4063745,-2.2645508
"212","Y05488","GP PRACTICE","ADULT SPECIALIST ADHD SERVICE","PostCode",52.6723306704804,-2.45499101217718
"213","Y08426","GP PRACTICE","ADULT VIRTUAL WARD","UPRN",52.5997412,-2.0955515
"214","Y06519","GP PRACTICE","ADULTS EATING DISORDERS SERVICE","PostCode",51.9070534730525,-2.08295398504289
"215","H82023","GP PRACTICE","ADUR HEALTH PARTNERSHIP","UPRN",50.8338105,-0.2743428
"216","Y06254","GP PRACTICE","ADUR MIAMI GP ACCESS HUB","PostCode",50.840952850009,-0.260244118812923
"217","Y07527","GP PRACTICE","AEGIS HEALTHCARE PCN ENHANCED ACCESS","UPRN",52.6347773,-1.0871362
"218","F81060","GP PRACTICE","AEGIS MEDICAL CENTRE","UPRN",51.5755623,0.4675544
"219","Y07482","GP PRACTICE","AEGROS HEALTH PCN HUB","UPRN",51.7884365,0.4764163
"220","M83738","GP PRACTICE","AELFGAR SURGERY","PostCode",52.7636239759125,-1.93762642971393
"221","Y07209","GP PRACTICE","AGEING WELL","UPRN",51.5247815,-0.7448714
"222","Y08293","GP PRACTICE","AIC PCN HUB","UPRN",50.8146161,-0.4909661
"223","P84009","GP PRACTICE","AILSA CRAIG MEDICAL CENTRE","UPRN",53.4541729,-2.2086007
"224","D81618","GP PRACTICE","AILSWORTH MEDICAL CENTRE","UPRN",52.5772228,-0.3520387
"225","N84012","GP PRACTICE","AINSDALE MEDICAL CENTRE","UPRN",53.6024238,-3.0387212
"226","N84014","GP PRACTICE","AINSDALE VILLAGE SURGERY","UPRN",53.6020864,-3.0375343
"227","Y02028","GP PRACTICE","AINTREE LOSS","UPRN",53.4663368,-2.9311017
"228","N82053","GP PRACTICE","AINTREE PARK GROUP PRACTICE","UPRN",53.462815,-2.9672964
"229","N84002","GP PRACTICE","AINTREE ROAD MEDICAL CENTRE","PostCode",53.4564746839201,-2.98197295596852
"230","L81038","GP PRACTICE","AIR BALLOON SURGERY","UPRN",51.4589088,-2.5325248
"231","B86051","GP PRACTICE","AIRE VALLEY SURGERY","UPRN",53.8666775,-1.6848857
"232","Y05993","GP PRACTICE","AIREBOROUGH COMMUNITY CARE","PostCode",53.866210948291,-1.68486963191996
"233","B86070","GP PRACTICE","AIREBOROUGH FAMILY PRACTICE","UPRN",53.8666775,-1.6848857
"234","Y07951","GP PRACTICE","AIREDALE AND BRADFORD MSK CONSORTIUM","PostCode",53.9235560633606,-1.81604821509417
"235","Y06862","GP PRACTICE","AIREDALE AND CRAVEN EIP","UPRN",53.8740013,-1.8955242
"236","Y05798","GP PRACTICE","AIREDALE CENTRE FOR MENTAL HEALTH","UPRN",53.8966276,-1.9649513
"237","A99905","GP PRACTICE","AIREDALE CENTRE FOR MH - BCSS INPATIENT UNIT","UPRN",53.8979547,-1.9627281
"238","G85695","GP PRACTICE","AKERMAN MEDICAL PRACTICE","UPRN",51.475716,-0.1051822
"239","A91200","GP PRACTICE","AKROTIRI MEDICAL CENTRE","UPRN",51.5519791,-0.4093728
"240","P82640","GP PRACTICE","AL FAL MEDICAL GROUP","UPRN",53.572927,-2.4453662
"241","M85123","GP PRACTICE","AL-SHAFA MEDICAL CENTRE","UPRN",52.5056978,-1.8921436
"242","C82099","GP PRACTICE","AL-WAQAS MEDICAL CENTRE","UPRN",52.6290451,-1.1088708
"243","K83026","GP PRACTICE","ALBANY HOUSE MEDICAL CENTRE","UPRN",52.3035044,-0.6953835
"244","M81072","GP PRACTICE","ALBANY HOUSE SURGERY","UPRN",52.200585,-2.2266525
"245","E85004","GP PRACTICE","ALBANY PRACTICE","UPRN",51.4867601,-0.3100368
"246","L83034","GP PRACTICE","ALBANY SURGERY","UPRN",50.5286341,-3.6084341
"247","A91104","GP PRACTICE","ALBERMARLE MEDICAL CENTRE","PostCode",55.0173314820196,-1.87177712106859
"248","W00098","GP PRACTICE","ALBERT ROAD SURGERY","UPRN",51.4409293,-3.1726989
"249","A88010","GP PRACTICE","ALBERT ROAD SURGERY","UPRN",54.9781119,-1.4917719
"250","W97057","GP PRACTICE","ALBERT ROAD SURGERY","UPRN",51.4409293,-3.1726989
"251","F84012","GP PRACTICE","ALBION HEALTH CENTRE","UPRN",51.520002,-0.0571851
"252","P89003","GP PRACTICE","ALBION MEDICAL PRACTICE","UPRN",53.4894586,-2.0885203
"253","G85138","GP PRACTICE","ALBION STREET GROUP PRACTICE","UPRN",51.5010084,-0.0506163
"254","N82095","GP PRACTICE","ALBION SURGERY","UPRN",53.4153609,-2.9642937
"255","M82021","GP PRACTICE","ALBRIGHTON MEDICAL PRACT","UPRN",52.6364663,-2.2715171
"256","M84049","GP PRACTICE","ALCESTER HEALTH CENTRE","UPRN",52.2174305,-1.8631358
"257","K84613","GP PRACTICE","ALCHESTER MEDICAL GROUP","UPRN",51.8913216,-1.1377037
"258","JER127","GP PRACTICE","ALCOHOL AND DRUGS SERVICE","PostCode",NA,NA
"259","Y04428","GP PRACTICE","ALCOHOL SERVICES FOR THE COMMUNITY","PostCode",51.8775561801306,-0.422952782790886
"260","D81004","GP PRACTICE","ALCONBURY SURGERY","UPRN",52.3714178,-0.2586101
"261","D82628","GP PRACTICE","ALDBOROUGH SURGERY","UPRN",52.8626644,1.2460343
"262","Y05263","GP PRACTICE","ALDEBURGH HOSPITAL","UPRN",52.1522813,1.5955759
"263","Y06386","GP PRACTICE","ALDER WARD","PostCode",52.6339204680913,1.26246754009213
"264","N81033","GP PRACTICE","ALDERLEY EDGE MEDICAL CENTRE","PostCode",53.3004490587712,-2.23747081578873
"265","J82092","GP PRACTICE","ALDERMOOR SURGERY","UPRN",50.9402877,-1.4280612
"266","F86731","GP PRACTICE","ALDERSBROOK MEDICAL CENTRE","UPRN",51.5611398,0.0373795
"267","A91084","GP PRACTICE","ALDERSHOT MEDICAL CENTRE","PostCode",51.2543618396524,-0.765650235018152
"268","Y07457","GP PRACTICE","ALDERSHOT PCN ENHANCED ACCESS","UPRN",51.2543622,-0.7656319
"269","M83107","GP PRACTICE","ALDERWOOD MEDICAL PRACTICE","UPRN",52.6839923,-2.0397429
"270","Y06022","GP PRACTICE","ALDINE HOUSE SCH","PostCode",53.3343879814966,-1.53746087444606
"271","Y06994","GP PRACTICE","ALEXANDER DEVINE CHILDREN'S HOSPICE","UPRN",51.4993919,-0.7550153
"272","J82120","GP PRACTICE","ALEXANDER HOUSE SURGERY","UPRN",51.293749,-0.7519843
"273","D83002","GP PRACTICE","ALEXANDRA & CRESTVIEW SURGERIES","PostCode",52.4802299313907,1.75272074149203
"274","P85015","GP PRACTICE","ALEXANDRA GROUP MED PRACT","UPRN",53.5378019,-2.0950928
"275","M87623","GP PRACTICE","ALEXANDRA MEDICAL CENTRE","UPRN",52.4536484,-2.063274
"276","H85656","GP PRACTICE","ALEXANDRA ROAD SURGERY","UPRN",51.4235621,-0.2046155
"277","Y08268","GP PRACTICE","ALFORD PHARMACY","UPRN",53.2604122,0.1757746
"278","Y00035","GP PRACTICE","ALICE HOUSE HOSPICE","UPRN",54.7022976,-1.2245634
"279","G83030","GP PRACTICE","ALL SAINTS MEDICAL CENTRE PMS","UPRN",51.4796213,0.0666352
"280","M83681","GP PRACTICE","ALL SAINTS SURGERY","UPRN",52.7940966,-1.6444152
"281","M83103","GP PRACTICE","ALLEN STREET CLINIC","PostCode",52.9838242767823,-1.98244239619673
"282","Y02935","GP PRACTICE","ALLERDALE PRIMARY CARE SERVICES","UPRN",54.6455737,-3.5497313
"283","B86039","GP PRACTICE","ALLERTON MEDICAL CENTRE","UPRN",53.8265708,-1.534465
"284","M86004","GP PRACTICE","ALLESLEY PARK MEDICAL CTR","UPRN",52.4133481,-1.5560069
"285","M86039","GP PRACTICE","ALLESLEY VILLAGE SURGERY","UPRN",52.4247399,-1.5685686
"286","Y05925","GP PRACTICE","ALLIANCE FOR BETTER CARE LTD","PostCode",51.2404137908745,-0.17573351120743
"287","Y04965","GP PRACTICE","ALLIANCE TEACHING PRACTICES","PostCode",52.4286570920645,-1.50168160987222
"288","Y08313","GP PRACTICE","ALLIED PHARMACY (UPTON ROCKS)","PostCode",53.3815702696617,-2.74603736910279
"289","Y08308","GP PRACTICE","ALLIED PHARMACY - CROSBY ROAD","UPRN",53.4807549,-3.0237014
"290","Y08309","GP PRACTICE","ALLIED PHARMACY NORTH PARK","UPRN",53.4580779,-2.9946749
"291","W91032","GP PRACTICE","ALLT GOCH MEDICAL CENTRE","UPRN",53.2464633,-3.1371467
"292","A81067","GP PRACTICE","ALMA MEDICAL CENTRE","UPRN",54.5695021,-1.3176612
"293","J82074","GP PRACTICE","ALMA ROAD SURGERY","UPRN",50.9895626,-1.4933653
"294","J82122","GP PRACTICE","ALMA ROAD SURGERY","UPRN",50.9217148,-1.4005462
"295","D81082","GP PRACTICE","ALMOND ROAD SURGERY","UPRN",52.2328974,-0.2617646
"296","L81127","GP PRACTICE","ALMONDSBURY SURGERY","UPRN",51.5538782,-2.5737803
"297","A99883","GP PRACTICE","ALNWICK INFIRMARY - BCSS INPATIENT UNIT","UPRN",55.4109411,-1.6972302
"298","A84006","GP PRACTICE","ALNWICK MEDICAL GROUP","PostCode",55.4100819551597,-1.6967322758876
"299","E84638","GP PRACTICE","ALPERTON MEDICAL CENTRE","UPRN",51.5428493,-0.2940811
"300","M85139","GP PRACTICE","ALPHA MEDICAL PRACTICE","UPRN",52.4912553,-1.8565641
"301","Y08320","GP PRACTICE","ALPHINGTON PHARMACY","UPRN",50.6994999,-3.5353705
"302","C82095","GP PRACTICE","ALPINE HOUSE SURGERY","UPRN",52.7239226,-1.1389511
"303","Y07779","GP PRACTICE","ALPS GROUP PCN HUB","UPRN",50.773768,0.2950926
"304","J82124","GP PRACTICE","ALRESFORD SURGERY","UPRN",51.0889366,-1.1615475
"305","M83035","GP PRACTICE","ALREWAS","UPRN",52.7328662,-1.7447893
"306","A82004","GP PRACTICE","ALSTON MEDICAL PRACTICE","UPRN",54.8102134,-2.4398409
"307","D81636","GP PRACTICE","ALTERNATIVE MEDICAL SCHEME CAMBRIDGE","PostCode",52.3278676519324,-0.181841519095351
"308","D81641","GP PRACTICE","ALTERNATIVE MEDICAL SCHEME FENLAND","PostCode",52.3278676519324,-0.181841519095351
"309","D81639","GP PRACTICE","ALTERNATIVE MEDICAL SCHEME HUNTS","PostCode",52.3278676519324,-0.181841519095351
"310","W93131","GP PRACTICE","ALTERNATIVE PRIMARY CARE","PostCode",51.5822467291161,-3.0028100312873
"311","W95298","GP PRACTICE","ALTERNATIVE PRIMARY HEALTH","PostCode",51.6053876458798,-3.33928501940079
"312","W97300","GP PRACTICE","ALTERNATIVE PRIMARY HEALTH","PostCode",51.4106589857231,-3.26130332359393
"313","W00102","GP PRACTICE","ALTERNATIVE PRIMARY HEALTH","UPRN",51.6148576,-3.4116902
"314","H85065","GP PRACTICE","ALTON PRACTICE","UPRN",51.4495335,-0.240512
"315","M81044","GP PRACTICE","ALTON STREET SURGERY","UPRN",51.9121558,-2.5832806
"316","M83640","GP PRACTICE","ALTON SURGERY","UPRN",52.9761013,-1.8914519
"317","P91004","GP PRACTICE","ALTRINCHAM MEDICAL PRACTICE","UPRN",53.3845308,-2.3501694
"318","M85149","GP PRACTICE","ALUM ROCK MEDICAL CENTRE","UPRN",52.4899156,-1.8506597
"319","P88019","GP PRACTICE","ALVANLEY FAMILY PRACTICE","UPRN",53.4263075,-2.0996627
"320","C81047","GP PRACTICE","ALVASTON MEDICAL CENTRE","UPRN",52.8946272,-1.4292497
"321","M82601","GP PRACTICE","ALVELEY MEDICAL PRACTICE","UPRN",52.4553639,-2.353355
"322","B87044","GP PRACTICE","ALVERTHORPE","UPRN",53.6859032,-1.5184999
"323","Y08346","GP PRACTICE","ALWOODLEY - PHARMACY PLUS HEALTH","UPRN",53.8479958,-1.5519008
"324","B86008","GP PRACTICE","ALWOODLEY MEDICAL CENTRE","UPRN",53.8479958,-1.5519008
"325","W91025","GP PRACTICE","ALYN FAMILY DOCTORS","PostCode",53.097034594734,-2.9983188449973
"326","Y01068","GP PRACTICE","AMAANAH MEDICAL PRACTICE","UPRN",52.4913969,-1.8516269
"327","Y00228","GP PRACTICE","AMBAR MEDICAL CENTRE","UPRN",52.57471,-1.9916189
"328","Y06124","GP PRACTICE","AMBER VALLEY HEALTH","UPRN",53.0104397,-1.3512411
"329","A82005","GP PRACTICE","AMBLESIDE HEALTH CENTRE","UPRN",54.4350601,-2.9663628
"330","F81067","GP PRACTICE","AMBROSE AVENUE GROUP PRACTICE","UPRN",51.8806416,0.8628256
"331","K82004","GP PRACTICE","AMERSHAM HEALTH CENTRE","UPRN",51.67504,-0.6041638
"332","G85698","GP PRACTICE","AMERSHAM VALE TRAINING PRACTICE","UPRN",51.4770163,-0.0318387
"333","Y05262","GP PRACTICE","AMH SLOUGH NMP 1","PostCode",51.5200797457251,-0.597728919696393
"334","G82013","GP PRACTICE","AMHERST MEDICAL PRACTICE","UPRN",51.2771931,0.1866301
"335","Y04723","GP PRACTICE","AMI LODGE - THANET","UPRN",51.2153325,1.3857214
"336","L83085","GP PRACTICE","AMICUS HEALTH","PostCode",50.9049825669286,-3.48764809756621
"337","W00142","GP PRACTICE","AMMAN TAWE PARTNERSHIP","UPRN",51.7926499,-3.8847433
"338","W00143","GP PRACTICE","AMMAN TAWE PARTNERSHIP","PostCode",51.7997154798608,-3.81865405927619
"339","J81076","GP PRACTICE","AMMONITE HEALTH PARTNERSHIP","UPRN",50.7340627,-2.7689995
"340","Y06965","GP PRACTICE","AMP HEALTHCARE CARPAL TUNNEL SERV","PostCode",53.615353471036,-1.14936532240679
"341","Y05221","GP PRACTICE","AMP HEALTHCARE OPHTHALMOLOGY","PostCode",53.8250859210043,-1.54340933026121
"342","B82609","GP PRACTICE","AMPLEFORTH SURGERY","UPRN",54.2003515,-1.1046967
"343","F83006","GP PRACTICE","AMPTHILL & REGENTS PARK PRACTICE","UPRN",51.5343243,-0.1373505
"344","F83652","GP PRACTICE","AMWELL GROUP PRACTICE","UPRN",51.5281678,-0.11057
"345","E82061","GP PRACTICE","AMWELL SURGERY","PostCode",51.75990203157,-0.0133122315660706
"346","M87028","GP PRACTICE","ANCHOR MEDICAL PRACTICE","UPRN",52.4891465,-2.0807879
"347","P84673","GP PRACTICE","ANCOATS URBAN VILLAGE MEDICAL PRACTICE","UPRN",53.4819932,-2.2228107
"348","B81026","GP PRACTICE","ANCORA MEDICAL PRACTICE","UPRN",53.5710532,-0.6554071
"349","D83608","GP PRACTICE","ANDAMAN SURGERY","UPRN",52.4554957,1.7137106
"350","F83666","GP PRACTICE","ANDOVER MEDICAL CENTRE","UPRN",51.5617687,-0.1164343
"351","G84624","GP PRACTICE","ANERLEY SURGERY","UPRN",51.4090244,-0.0606281
"352","N82103","GP PRACTICE","ANFIELD GROUP PRACTICE","UPRN",53.4294922,-2.9449313
"353","D83005","GP PRACTICE","ANGEL HILL SURGERY","UPRN",52.2442166,0.7157703
"354","F81090","GP PRACTICE","ANGEL LANE SURGERY","UPRN",51.871539,0.3621395
"355","Y01953","GP PRACTICE","ANGEL LODGE","PostCode",53.6840223608728,-1.50826440960336
"356","Y00057","GP PRACTICE","ANGEL SURGERY","UPRN",51.611011,-0.0650822
"357","Y02888","GP PRACTICE","ANGLIA COMMUNITY EYE SERVICE","UPRN",52.664955,0.1639286
"358","M85805","GP PRACTICE","ANN MARIE HOWES CENTRE","UPRN",52.4648174,-1.7785358
"359","E82098","GP PRACTICE","ANNANDALE MEDICAL CENTRE","UPRN",51.6981892,-0.1742747
"360","A83644","GP PRACTICE","ANNFIELD PLAIN SURGERY","UPRN",54.8567709,-1.7355014
"361","Y07704","GP PRACTICE","ANS","UPRN",52.9136591,-1.4646841
"362","G81691","GP PRACTICE","ANS KESTREL","UPRN",50.7768281,0.2576655
"363","G81690","GP PRACTICE","ANS POLEGATE","UPRN",50.8191019,0.2426382
"364","P81037","GP PRACTICE","ANSDELL MEDICAL CENTRE","UPRN",53.7488705,-3.0005012
"365","Y06093","GP PRACTICE","ANTENATAL CLINIC","PostCode",53.4273295341881,-2.24782480474432
"366","Y06572","GP PRACTICE","ANTI-COAGULATION SERVICE","UPRN",52.5997412,-2.0955515
"367","Y02434","GP PRACTICE","ANTICOAG SERV KINGS NORTON","UPRN",52.4043588,-1.9311385
"368","Y02441","GP PRACTICE","ANTICOAG SERV YARDLEY WOOD","UPRN",52.4190309,-1.8597801
"369","Y02430","GP PRACTICE","ANTICOAG SERVICE BELLEVUE","UPRN",52.465214,-1.9014355
"370","Y02431","GP PRACTICE","ANTICOAG SERVICE GR PHARMACY","UPRN",52.4303881,-1.9832269
"371","Y02432","GP PRACTICE","ANTICOAG SERVICE GREENRIDGE","PostCode",52.4284311896682,-1.87103508979314
"372","Y02433","GP PRACTICE","ANTICOAG SERVICE HARBOURNE","UPRN",52.4591233,-1.9462555
"373","Y02435","GP PRACTICE","ANTICOAG SERVICE KINGSFIELD","UPRN",52.4267796,-1.893005
"374","Y02436","GP PRACTICE","ANTICOAG SERVICE LORDSWOOD","UPRN",52.4590672,-1.9612108
"375","Y02437","GP PRACTICE","ANTICOAG SERVICE RIDGACRE","UPRN",52.4608547,-1.9883808
"376","Y02438","GP PRACTICE","ANTICOAG SERVICE RIVERBROOK","PostCode",52.433027952463,-1.9138085741261
"377","Y02439","GP PRACTICE","ANTICOAG SERVICE SOUTH DOC","UPRN",52.438544,-1.9382699
"378","Y02440","GP PRACTICE","ANTICOAG SERVICE UHB","PostCode",52.4366478013343,-1.93751348803401
"379","P81787","GP PRACTICE","ANTICOAGULANT CLINIC","UPRN",53.6957577,-2.4714225
"380","Y07934","GP PRACTICE","ANTICOAGULANT CLINIC","UPRN",53.5577546,-2.6290904
"381","Y04992","GP PRACTICE","ANTICOAGULATION - HOLLYWOOD PRACTICE","UPRN",52.3896656,-1.8806917
"382","Y04911","GP PRACTICE","ANTICOAGULATION - INTRAHEALTH","PostCode",52.488314590578,-1.84906457762142
"383","Y04931","GP PRACTICE","ANTICOAGULATION SERVICE - GR PHARMACY","UPRN",52.4303881,-1.9832269
"384","Y07291","GP PRACTICE","ANTICOAGULATION SERVICE GTD HEALTHCARE","UPRN",53.5438404,-2.1169423
"385","Y05965","GP PRACTICE","ANTIVIRALS SERVICE (NORTH)","PostCode",53.4459668784968,-2.9895750367436
"386","Y05966","GP PRACTICE","ANTIVIRALS SERVICE (SOUTH)","PostCode",53.4459668784968,-2.9895750367436
"387","Y08107","GP PRACTICE","AOT","UPRN",51.8803392,-2.0740356
"388","Y06596","GP PRACTICE","APCOS HEADCORN EYE CENTRE","UPRN",51.1680106,0.621649
"389","Y07090","GP PRACTICE","APCOS ST ANDREWS","UPRN",51.1562782,0.2607137
"390","Y07103","GP PRACTICE","APCOS TENTERDEN OPTICIANS","PostCode",51.0687186814885,0.689133285625081
"391","Y08494","GP PRACTICE","APCS - COMMUNITY NURSE SERVICE","UPRN",52.4212279,-1.4383986
"392","Y08495","GP PRACTICE","APCS - PALLIATIVE CARE SERVICE","UPRN",52.4212279,-1.4383986
"393","Y08496","GP PRACTICE","APCS - URGENT COMMUNITY RESPONSE","UPRN",52.4212279,-1.4383986
"394","G82679","GP PRACTICE","APEX MEDICAL CENTRE","PostCode",51.3973953132649,0.493189268402305
"395","Y07652","GP PRACTICE","APLOS HEALTH PCN GPEA","UPRN",51.4356639,-0.0434724
"396","Y08690","GP PRACTICE","APOLLO COLLABORATIVE PCN HUB","UPRN",52.497947,-1.7073203
"397","Y08240","GP PRACTICE","APOLLO PCN/CCL URGENT HUB","UPRN",53.5507088,-0.1133613
"398","Y08526","GP PRACTICE","APOLLO PHARMACY","UPRN",52.3074785,-1.9427663
"399","M85158","GP PRACTICE","APOLLO SURGERY","UPRN",52.5544194,-1.8925481
"400","A82006","GP PRACTICE","APPLEBY MEDICAL PRACTICE","UPRN",54.5790189,-2.4943855
"401","Y08596","GP PRACTICE","APPLEGATE PHARMACY","UPRN",52.9559913,-1.1664481
"402","C81048","GP PRACTICE","APPLETREE MEDICAL PRACTICE","UPRN",52.9855036,-1.4856156
"403","GUE999","GP PRACTICE","APPLIANCE FORMS PS25","UPRN",54.9705742,-1.6092428
"404","Y05679","GP PRACTICE","APPLIANCE PRESCRIPTION SERVICE","UPRN",53.8009743,-2.3147956
"405","M83627","GP PRACTICE","APSLEY SURGERY","UPRN",53.0358632,-2.1861116
"406","Y04758","GP PRACTICE","AQP ANTICOAG ASHFIELD SURGERY","UPRN",52.5398788,-1.7998405
"407","Y06174","GP PRACTICE","AQP ANTICOAG ASHFURLONG MC","PostCode",52.5773518436167,-1.80668814806692
"408","Y04730","GP PRACTICE","AQP ANTICOAG ASTON HEALTH CENTRE","UPRN",52.5086345,-1.8898027
"409","Y04767","GP PRACTICE","AQP ANTICOAG BIRMINGHAM CITY HOSPITAL","PostCode",52.4886251597096,-1.93250662597107
"410","Y04738","GP PRACTICE","AQP ANTICOAG COLLEGE ROAD SURGERY","UPRN",52.5366041,-1.8748643
"411","Y06175","GP PRACTICE","AQP ANTICOAG EDEN COURT","PostCode",52.5181052378926,-1.79400896365769
"412","Y04733","GP PRACTICE","AQP ANTICOAG GOODREST CROFT SURGERY","UPRN",52.4139617,-1.8682331
"413","Y04732","GP PRACTICE","AQP ANTICOAG HALL GREEN HEALTH","UPRN",52.4405864,-1.8497364
"414","Y04759","GP PRACTICE","AQP ANTICOAG HAWTHORNS SURGERY","UPRN",52.5399462,-1.8258102
"415","Y04870","GP PRACTICE","AQP ANTICOAG INTRAHEALTH","UPRN",52.4940593,-1.7489699
"416","Y04754","GP PRACTICE","AQP ANTICOAG LEY HILL SURGERY","UPRN",52.5833197,-1.8278309
"417","Y04736","GP PRACTICE","AQP ANTICOAG LORDSWOOD MEDICAL GROUP","UPRN",52.4590672,-1.9612108
"418","Y04762","GP PRACTICE","AQP ANTICOAG QE HERITAGE BUILDING","PostCode",52.4501439796378,-1.94177628684386
"419","Y04749","GP PRACTICE","AQP ANTICOAG RIDGACRE MEDICAL CENTRE","UPRN",52.4608547,-1.9883808
"420","Y04768","GP PRACTICE","AQP ANTICOAG SANDWELL HOSPITAL","UPRN",52.5280934,-1.9888611
"421","Y04739","GP PRACTICE","AQP ANTICOAG SOUTH DOC","UPRN",52.4010663,-1.9619929
"422","Y04747","GP PRACTICE","AQP ANTICOAG SOUTH DOC BARTLEY GREEN MP","UPRN",52.4354675,-2.0045683
"423","Y04753","GP PRACTICE","AQP ANTICOAG SOUTH DOC CAPE HILL MC","UPRN",52.4884191,-1.9542527
"424","Y04750","GP PRACTICE","AQP ANTICOAG SOUTH DOC DOVECOTE SURGERY","UPRN",52.4643166,-1.9939152
"425","Y04748","GP PRACTICE","AQP ANTICOAG SOUTH DOC JIGGINS LANE SURG","UPRN",52.4360753,-1.9964472
"426","Y04741","GP PRACTICE","AQP ANTICOAG SOUTH DOC THE DOVE MC","UPRN",52.5351684,-1.8646003
"427","Y06176","GP PRACTICE","AQP ANTICOAG STOCKLAND GREEN","PostCode",52.5238799792208,-1.85732928507937
"428","Y04752","GP PRACTICE","AQP ANTICOAG SUMMERFIELD PCC","UPRN",52.4877019,-1.9373429
"429","Y06177","GP PRACTICE","AQP ANTICOAG SUTTON PARK","PostCode",52.5644748771483,-1.87855929767698
"430","Y04757","GP PRACTICE","AQP ANTICOAG SUTTON PARK SURGERY","UPRN",52.5661024,-1.87933
"431","Y04740","GP PRACTICE","AQP ANTICOAG THE DOVE MEDICAL CENTRE","UPRN",52.5351684,-1.8646003
"432","Y04726","GP PRACTICE","AQP ANTICOAG THE NECHELLS PRACTICE","UPRN",52.4923463,-1.8770888
"433","Y06178","GP PRACTICE","AQP ANTICOAG WARREN FARM HEALTH CENTRE","PostCode",52.5420894701331,-1.87789844762861
"434","Y04793","GP PRACTICE","AQP ANTICOAG YARDLEY WOOD HEALTH CENTRE","UPRN",52.4190309,-1.8597801
"435","Y06368","GP PRACTICE","AQP SLH BC & M GROUP","UPRN",52.3949718,-1.6438522
"436","Y06369","GP PRACTICE","AQP SLH BLOSSOMFIELD","UPRN",52.4045816,-1.8063632
"437","Y06370","GP PRACTICE","AQP SLH CROFT MC","UPRN",52.4778795,-1.7277435
"438","Y06371","GP PRACTICE","AQP SLH DORRIDGE","UPRN",52.3727725,-1.7520654
"439","Y06372","GP PRACTICE","AQP SLH RICHMOND MC","UPRN",52.4467336,-1.7997058
"440","Y06373","GP PRACTICE","AQP SLH THE CASTLE","UPRN",52.5019658,-1.7597228
"441","Y04236","GP PRACTICE","AQUARIUS DUDLEY COMMUNITY ALCOHOL TEAM","UPRN",52.4813807,-2.1203233
"442","A91181","GP PRACTICE","ARBROATH MEDICAL CENTRE","PostCode",56.5854926610817,-2.63384619347813
"443","M84003","GP PRACTICE","ARBURY MEDICAL CENTRE","UPRN",52.5163523,-1.49859
"444","D81016","GP PRACTICE","ARBURY ROAD SURGERY","UPRN",52.2258735,0.1280887
"445","Y05479","GP PRACTICE","ARC","PostCode",53.8017690822647,-3.0029313928491
"446","Y07357","GP PRACTICE","ARC BUCKS PCN","UPRN",51.5738292,-0.7700008
"447","F85034","GP PRACTICE","ARCADIAN GARDENS SURGERY","UPRN",51.6067294,-0.1107481
"448","G81689","GP PRACTICE","ARCH HEALTHCARE","UPRN",50.8256839,-0.1342702
"449","F83004","GP PRACTICE","ARCHWAY MEDICAL CENTRE","UPRN",51.5625441,-0.1260977
"450","E82643","GP PRACTICE","ARCHWAY SURGERY","UPRN",51.722965,-0.5326629
"451","P88625","GP PRACTICE","ARCHWOOD MEDICAL PRACTICE","UPRN",53.4263075,-2.0996627
"452","C81634","GP PRACTICE","ARDEN HOUSE MEDICAL PRACTICE","UPRN",53.3666335,-2.002786
"453","M89030","GP PRACTICE","ARDEN MEDICAL CENTRE","UPRN",52.3794869,-1.7430518
"454","Y00418","GP PRACTICE","ARDEN MEMORY SERVICES","UPRN",52.4492396,-1.485536
"455","Y04136","GP PRACTICE","ARDEN MH ACUTE TEAM","PostCode",52.4224289096626,-1.44554901228061
"456","Y08691","GP PRACTICE","ARDEN PCN HUB","PostCode",52.2922355238199,-1.53835766813335
"457","G81006","GP PRACTICE","ARDINGLY COURT SURGERY","UPRN",50.8212499,-0.1328956
"458","P84037","GP PRACTICE","ARDWICK MEDICAL PRACTICE","UPRN",53.4698054,-2.2245362
"459","P81147","GP PRACTICE","ARG HEALTHCARE","UPRN",53.7527133,-2.3758385
"460","E85744","GP PRACTICE","ARGYLE HEALTH-ISLEWORTH PRACTICE","UPRN",51.4678107,-0.3287294
"461","W00067","GP PRACTICE","ARGYLE MEDICAL GROUP","UPRN",51.6920785,-4.9368142
"462","J84008","GP PRACTICE","ARGYLL HOUSE","PostCode",50.7269129970892,-1.16614060548271
"463","L85030","GP PRACTICE","ARIEL HEALTHCARE","PostCode",50.8695687416184,-2.9679660465121
"464","Y08360","GP PRACTICE","ARLINGTON ROAD PHARMACY","UPRN",50.7681842,0.2775872
"465","G81050","GP PRACTICE","ARLINGTON ROAD SURGERY","UPRN",50.7681842,0.2775872
"466","A99888","GP PRACTICE","ARNOLD LODGE - BCSS INPATIENT UNIT","UPRN",52.6476052,-1.0917176
"467","P81081","GP PRACTICE","ARNOLD MEDICAL CENTRE","UPRN",53.7894711,-3.0378809
"468","F85700","GP PRACTICE","ARNOS GROVE MEDICAL CENTR","UPRN",51.6154287,-0.1306233
"469","M89013","GP PRACTICE","ARRAN MEDICAL CENTRE","PostCode",52.5032637117309,-1.74793793845298
"470","Y07642","GP PRACTICE","ARRHYTHMIA CLINIC","UPRN",52.5997412,-2.0955515
"471","A91213","GP PRACTICE","ARTFUL MEDICAL CENTRE","PostCode",54.104285438326,-3.23288986001992
"472","B86096","GP PRACTICE","ARTHINGTON MEDICAL CENTRE","UPRN",53.7721828,-1.5317586
"473","Y06590","GP PRACTICE","ARTHROPLASTY PRACTITIONER SERVICE","UPRN",53.5898202,-2.711508
"474","C81017","GP PRACTICE","ARTHUR MEDICAL CENTRE","PostCode",53.0015002759389,-1.42263549662965
"475","Y05839","GP PRACTICE","ARTHUR RANK HOSPICE","PostCode",52.1677966340483,0.16120329923059
"476","Y06251","GP PRACTICE","ARUN MIAMI GP ACCESS HUB","PostCode",50.8087564340018,-0.531672800794279
"477","H82021","GP PRACTICE","ARUNDEL SURGERY","UPRN",50.8528719,-0.5672459
"478","F81640","GP PRACTICE","ARYAN MEDICAL CENTRE","UPRN",51.5793057,0.508605
"479","C86609","GP PRACTICE","ASA MEDICAL GROUP","PostCode",53.5397071949789,-1.06182229183442
"480","A91214","GP PRACTICE","ASCENSION MEDICAL CENTRE","PostCode",NA,NA
"481","Y08670","GP PRACTICE","ASCENT PCN HUB","UPRN",52.0126228,-0.6498031
"482","K81655","GP PRACTICE","ASCOT MEDICAL CENTRE","PostCode",51.4089333798326,-0.688278867296849
"483","B87021","GP PRACTICE","ASH GROVE","UPRN",53.7049663,-1.2445853
"484","W00133","GP PRACTICE","ASH GROVE MEDICAL CENTRE","UPRN",51.6844789,-4.1624966
"485","G82138","GP PRACTICE","ASH SURGERY","UPRN",51.2795827,1.2791896
"486","P81129","GP PRACTICE","ASH TREE HOUSE SURGERY","UPRN",53.7827289,-2.8709659
"487","P81029","GP PRACTICE","ASH TREES SURGERY","UPRN",54.12945,-2.7689006
"488","C81037","GP PRACTICE","ASHBOURNE MEDICAL PRACTICE","PostCode",53.0128592936804,-1.73758912529945
"489","A89018","GP PRACTICE","ASHBURN MEDICAL CENTRE","UPRN",54.9055246,-1.373254
"490","E81615","GP PRACTICE","ASHBURNHAM ROAD SURGERY","UPRN",52.135983,-0.4780985
"491","H83033","GP PRACTICE","ASHBURTON PARK MEDICAL CENTRE","UPRN",51.3847402,-0.0636527
"492","L83010","GP PRACTICE","ASHBURTON SURGERY","UPRN",50.5202404,-3.7473022
"493","B81045","GP PRACTICE","ASHBY TURN PRIMARY CARE PARTNERS","UPRN",53.5659875,-0.6541784
"494","E85032","GP PRACTICE","ASHCHURCH SURGERY","UPRN",51.5018529,-0.2423164
"495","K82061","GP PRACTICE","ASHCROFT SURGERY","UPRN",51.8981241,-0.717675
"496","B83062","GP PRACTICE","ASHCROFT SURGERY","UPRN",53.8242607,-1.7123511
"497","P84053","GP PRACTICE","ASHCROFT SURGERY","UPRN",53.4456901,-2.1911392
"498","G81024","GP PRACTICE","ASHDOWN FOREST HEALTH CENTRE","UPRN",51.097032,0.0328929
"499","G85057","GP PRACTICE","ASHDOWN MEDICAL GROUP","UPRN",51.4261099,0.012005
"500","C84067","GP PRACTICE","ASHFIELD HOUSE (ANNESLEY)","UPRN",53.0764179,-1.2570317
"501","B86055","GP PRACTICE","ASHFIELD MEDICAL CENTRE","UPRN",53.8075783,-1.45007
"502","K82054","GP PRACTICE","ASHFIELD MEDICAL CENTRE","UPRN",52.0201587,-0.7376857
"503","M92609","GP PRACTICE","ASHFIELD ROAD SURGERY","UPRN",52.6267796,-2.132542
"504","M85026","GP PRACTICE","ASHFIELD SURGERY","UPRN",52.5398788,-1.7998405
"505","N81032","GP PRACTICE","ASHFIELDS PRIMARY CARE CENTRE","UPRN",53.1446578,-2.3673959
"506","Y08450","GP PRACTICE","ASHFORD AND ST PETERS NHS TRUST","UPRN",50.8195305,-0.3630051
"507","Y05500","GP PRACTICE","ASHFORD ANTICOAGULATION SERVICE","PostCode",51.0715039155418,1.08553986623793
"508","Y03725","GP PRACTICE","ASHFORD GROUP","PostCode",51.1718902386223,0.870712311822859
"509","G82080","GP PRACTICE","ASHFORD MEDICAL PARTNERSHIP","UPRN",51.1367407,0.8988709
"510","Y03105","GP PRACTICE","ASHFORD WIC","UPRN",51.4446229,-0.4719951
"511","C81667","GP PRACTICE","ASHGATE HOSPICE DAYCENTRE","UPRN",53.2404214,-1.4796311
"512","F81690","GP PRACTICE","ASHINGDON MEDICAL CENTRE","UPRN",51.6003786,0.6893294
"513","J83036","GP PRACTICE","ASHINGTON HOUSE SURGERY","UPRN",51.5574744,-1.8266047
"514","Y08303","GP PRACTICE","ASHINGTON WAY PHARMACY","UPRN",51.5574744,-1.8266047
"515","H81017","GP PRACTICE","ASHLEA MEDICAL PRACTICE","UPRN",51.3135209,-0.3040058
"516","W92065","GP PRACTICE","ASHLEIGH SURGERY","UPRN",52.0850483,-4.6571552
"517","H81071","GP PRACTICE","ASHLEY CENTRE SURGERY","UPRN",51.3325342,-0.2666378
"518","Y00271","GP PRACTICE","ASHLEY INTERMEDIATE CARE CTR","UPRN",51.8834829,-2.0449399
"519","H81663","GP PRACTICE","ASHLEY MEDICAL PRACTICE","UPRN",51.3806625,-0.413341
"520","Y08199","GP PRACTICE","ASHLEY PHARMACY","UPRN",50.757646,-1.63817
"521","M83017","GP PRACTICE","ASHLEY SURGERY","UPRN",52.9261762,-2.3550848
"522","M92022","GP PRACTICE","ASHMORE PARK MEDICAL CENTRE","UPRN",52.6138581,-2.0592776
"523","C81611","GP PRACTICE","ASHOVER MEDICAL CENTRE","UPRN",53.1647373,-1.4770907
"524","F82686","GP PRACTICE","ASHTON GARDENS SURGERY","UPRN",51.5723751,0.1397371
"525","Y02586","GP PRACTICE","ASHTON GP SERVICE","UPRN",53.4860975,-2.0992131
"526","P89008","GP PRACTICE","ASHTON MEDICAL GROUP","UPRN",53.4895213,-2.0888068
"527","Y05233","GP PRACTICE","ASHTON PCC SEVEN DAY ACCESS OOH","UPRN",53.4860975,-2.0992131
"528","B86623","GP PRACTICE","ASHTON VIEW MEDICAL CTR","UPRN",53.809711,-1.5167161
"529","P81201","GP PRACTICE","ASHURST PRIMARY CARE","UPRN",53.5632242,-2.7727228
"530","C85003","GP PRACTICE","ASHVILLE MEDICAL CENTRE PMS PRACTICE","UPRN",53.5429162,-1.4580507
"531","E85719","GP PRACTICE","ASHVILLE SURGERY","UPRN",51.4762866,-0.2013651
"532","P84038","GP PRACTICE","ASHVILLE SURGERY","UPRN",53.4527703,-2.2675937
"533","B83641","GP PRACTICE","ASHWELL MEDICAL CENTRE","UPRN",53.8040674,-1.7772022
"534","D81047","GP PRACTICE","ASHWELL SURGERY","UPRN",52.0424106,-0.1563024
"535","A99920","GP PRACTICE","ASHWORTH (SECURED) PRACTICE","PostCode",53.5186665203135,-2.91537442800143
"536","A99988","GP PRACTICE","ASHWORTH HOSPITAL - BCSS INPATIENT UNIT","PostCode",53.5186665203135,-2.91537442800143
"537","P86006","GP PRACTICE","ASHWORTH STREET SURGERY","UPRN",53.6195811,-2.1656502
"538","C86605","GP PRACTICE","ASKERN MEDICAL PRACTICE","UPRN",53.6155139,-1.1489164
"539","A99879","GP PRACTICE","ASKET CROFT - BCSS INPATIENT UNIT","PostCode",53.8219348452307,-1.48023548374197
"540","A99881","GP PRACTICE","ASKET HOUSE - BCSS INPATIENT UNIT","PostCode",53.8219348452307,-1.48023548374197
"541","Y07491","GP PRACTICE","ASOP PCN HUB","UPRN",51.498431,0.2584101
"542","A82055","GP PRACTICE","ASPATRIA MEDICAL GROUP","UPRN",54.7629751,-3.3354727
"543","L84026","GP PRACTICE","ASPEN MEDICAL PRACTICE","UPRN",51.8651026,-2.2262972
"544","F84010","GP PRACTICE","ASPIRE MEDICAL CENTRE","PostCode",51.532550095552,0.0501628965166636
"545","Y08242","GP PRACTICE","ASPIRE MEDICAL PCN HUB","UPRN",51.3876008,0.4674449
"546","Y06354","GP PRACTICE","ASPIRO HEALTHCARE","UPRN",52.4845217,-0.7118954
"547","K83614","GP PRACTICE","ASPIRO HEALTHCARE STUDFALL MED CENTRE","UPRN",52.4961459,-0.7044116
"548","E81050","GP PRACTICE","ASPLANDS MEDICAL CENTRE","UPRN",52.0126228,-0.6498031
"549","C84091","GP PRACTICE","ASPLEY MEDICAL CENTRE","UPRN",52.9721217,-1.2055838
"550","E84658","GP PRACTICE","ASPRI MEDICAL CENTRE","UPRN",51.604549,-0.3406951
"551","P92015","GP PRACTICE","ASPULL SURGERY","UPRN",53.5694261,-2.5858818
"552","Y04052","GP PRACTICE","ASR MENTAL HEALTH SERVICE","UPRN",50.3783786,-4.1127812
"553","Y08738","GP PRACTICE","ASR NUTRITION","UPRN",52.3982218,-1.9537707
"554","Y02228","GP PRACTICE","ASSERTIVE OUTREACH","UPRN",52.2853807,-1.5298972
"555","Y08615","GP PRACTICE","ASSERTIVE OUTREACH GLOUCESTER","UPRN",51.8653977,-2.2362903
"556","Y03508","GP PRACTICE","ASSURA ER LLP HULL DERMATOLOGY","UPRN",53.7638421,-0.2940284
"557","Y02659","GP PRACTICE","ASSURA HANTS HEALTH LLP","UPRN",51.2671832,-1.0862912
"558","Y08208","GP PRACTICE","ASTERWELL PHARMACY","UPRN",52.4034101,-1.8102046
"559","Y08165","GP PRACTICE","ASTHMA VIRTUAL WARD","UPRN",52.6543804,-1.1800113
"560","P92637","GP PRACTICE","ASTLEY GENERAL PRACTICE","UPRN",53.5003779,-2.4583095
"561","N83028","GP PRACTICE","ASTON HEALTHCARE LIMITED","UPRN",53.4045683,-2.831049
"562","C85629","GP PRACTICE","ASYLUM SEEKERS","UPRN",53.5591192,-1.4965057
"563","Y03492","GP PRACTICE","AT HOME SERVICE","UPRN",51.4385285,-0.1061563
"564","Y02974","GP PRACTICE","AT MEDICS","UPRN",51.4988813,0.0899133
"565","Y02987","GP PRACTICE","AT MEDICS - THE LOXFORD PRACTICE","UPRN",51.5458222,0.0772484
"566","Y05162","GP PRACTICE","AT MEDICS STREATHAM PCN EA HUB","UPRN",51.432642,-0.1276488
"567","F84060","GP PRACTICE","ATHENA MEDICAL CENTRE","UPRN",51.555291,-0.0524135
"568","Y07853","GP PRACTICE","ATHENA PCN HUB","UPRN",51.2298225,0.5067232
"569","J82115","GP PRACTICE","ATHERLEY HOUSE SURGERY","UPRN",50.9133321,-1.4215644
"570","Y05301","GP PRACTICE","ATHLONE HOUSE REHABILITATION UNIT","PostCode",51.5228262930955,-0.200074699826916
"571","A82062","GP PRACTICE","ATKINSON HEALTH CENTRE","PostCode",54.1099319044201,-3.22478196827571
"572","Y06023","GP PRACTICE","ATKINSON SCH","PostCode",50.7360699986256,-3.49706958911609
"573","L82038","GP PRACTICE","ATLANTIC MEDICAL GROUP","UPRN",50.1223983,-5.5451396
"574","N83023","GP PRACTICE","ATLAS MEDICAL PRACTICE","UPRN",53.4551653,-2.724298
"575","Y03585","GP PRACTICE","ATRIAL FIBRILLATION CLINIC","UPRN",51.2414836,-0.7410067
"576","J81068","GP PRACTICE","ATRIUM HEALTH CENTRE","UPRN",50.7110599,-2.4379866
"577","E82124","GP PRACTICE","ATTENBOROUGH SURGERY","UPRN",51.6461182,-0.3751817
"578","D82034","GP PRACTICE","ATTLEBOROUGH SURGERY","UPRN",52.5155115,1.0213599
"579","Y06567","GP PRACTICE","ATTWOOD GREEN HEALTH UNIT","UPRN",52.4726379,-1.9084644
"580","M85749","GP PRACTICE","AUBREY ROAD MEDICAL CENTRE","UPRN",52.4665192,-1.8470731
"581","A83021","GP PRACTICE","AUCKLAND MEDICAL GROUP","UPRN",54.6489244,-1.6797793
"582","A99001","GP PRACTICE","AUCKLAND PARK HOSPITAL","UPRN",54.6553028,-1.6830249
"583","H83037","GP PRACTICE","AUCKLAND SURGERY","UPRN",51.4095293,-0.0808965
"584","A91143","GP PRACTICE","AUDIOLOGY SERVICE INM","PostCode",50.7808015389373,-1.14061555411753
"585","N81001","GP PRACTICE","AUDLEM MEDICAL PRACTICE","UPRN",52.9899057,-2.5096141
"586","M83054","GP PRACTICE","AUDLEY HEALTH CENTRE","UPRN",53.0542085,-2.300579
"587","F81123","GP PRACTICE","AUDLEY MILLS SURGERY","UPRN",51.584983,0.6071555
"588","P81695","GP PRACTICE","AUGHTON SURGERY","UPRN",53.5443714,-2.9005635
"589","F82042","GP PRACTICE","AURORA MEDCARE","PostCode",51.5279391608676,0.103861291864096
"590","H81006","GP PRACTICE","AUSTEN ROAD SURGERY","UPRN",51.2379073,-0.558185
"591","F81010","GP PRACTICE","AVELEY MEDICAL CENTRE","UPRN",51.498431,0.2584101
"592","P81770","GP PRACTICE","AVENHAM SURGERY","UPRN",53.7569925,-2.6939453
"593","Y02247","GP PRACTICE","AVENUE HOUSE","PostCode",52.5269858303396,-1.47770842147996
"594","J83018","GP PRACTICE","AVENUE SURGERY","UPRN",51.2063175,-2.1785303
"595","W92037","GP PRACTICE","AVENUE VILLA SURGERY","UPRN",51.6795749,-4.1665592
"596","Y04202","GP PRACTICE","AVHAC WALK IN PATIENTS WIC","UPRN",53.7595987,-2.3669207
"597","A91144","GP PRACTICE","AVIATION MEDICINE INM","PostCode",50.7808015389373,-1.14061555411753
"598","H82048","GP PRACTICE","AVISFORD MEDICAL GROUP","UPRN",50.8220765,-0.6132231
"599","Y05464","GP PRACTICE","AVOCET WARD","UPRN",52.0241267,0.2588356
"600","Y04074","GP PRACTICE","AVON CMHS","UPRN",50.3783786,-4.1127812
"601","J83023","GP PRACTICE","AVON VALLEY PRACTICE","UPRN",51.2950437,-1.8109429
"602","M84010","GP PRACTICE","AVONSIDE HEALTH CENTRE","UPRN",52.2892825,-1.5605854
"603","M87009","GP PRACTICE","AW SURGERIES","UPRN",52.4826816,-2.1229185
"604","P89004","GP PRACTICE","AWBURN HOUSE MEDICAL PRACTICE","UPRN",53.4583011,-2.0108331
"605","L85055","GP PRACTICE","AXBRIDGE SURGERY","UPRN",51.2859251,-2.8209814
"606","L83020","GP PRACTICE","AXMINSTER MEDICAL PRACTICE","UPRN",50.780889,-2.9992329
"607","Y06024","GP PRACTICE","AYCLIFFE SCH","PostCode",54.6247001363075,-1.54954409863304
"608","Y06928","GP PRACTICE","AYCLIFFE SECURE CENTRE","UPRN",54.6247153,-1.5495541
"609","M85779","GP PRACTICE","AYLESBURY SURGERY","UPRN",52.5428692,-1.8760469
"610","G82058","GP PRACTICE","AYLESFORD MEDICAL CENTRE","UPRN",51.2951057,0.4727667
"611","G82211","GP PRACTICE","AYLESHAM MEDICAL PRACTICE","UPRN",51.2255719,1.2029577
"612","C82092","GP PRACTICE","AYLESTONE HEALTH CENTRE","UPRN",52.6056918,-1.1524611
"613","M81068","GP PRACTICE","AYLMER LODGE COOKLEY PARTNERSHIP","UPRN",52.3841999,-2.2610919
"614","B82063","GP PRACTICE","AYTON AND SNAINTON MEDICAL PRACTICE","PostCode",54.2460441603104,-0.493641601143157
"615","Y05157","GP PRACTICE","B & A CCG EXTENDED HOURS SERVICE","UPRN",51.4138104,-0.7458288
"616","Y06289","GP PRACTICE","B&H EXTENDED HOURS SERVICE","PostCode",50.8383755403863,-0.148293331555721
"617","Y01838","GP PRACTICE","B&H INTERMEDIATE CARE SERVICE","UPRN",51.1299881,0.8932148
"618","Y06718","GP PRACTICE","B&I PCN HUB","UPRN",51.4746716,-0.3464824
"619","Y03746","GP PRACTICE","B'WATER CH CN WARRINGTON","PostCode",53.4140976576425,-2.52753649315719
"620","Y00921","GP PRACTICE","B.D.I.P.KARIS","UPRN",52.4743411,-1.93078
"621","Y00922","GP PRACTICE","B.D.I.P.PEARL","UPRN",52.4933681,-1.8334089
"622","Y00919","GP PRACTICE","B.D.I.P.RIDGACRE","UPRN",52.4608547,-1.9883808
"623","Y00920","GP PRACTICE","B.D.I.P.WAND","UPRN",52.4642011,-1.8886765
"624","Y06487","GP PRACTICE","BABYLON GP AT HAND BIRMINGHAM","PostCode",52.4771459735718,-1.87757731710319
"625","Y02331","GP PRACTICE","BAC O'CONNOR","UPRN",52.805691,-1.6378358
"626","E84014","GP PRACTICE","BACON LANE SURGERY","UPRN",51.6050803,-0.2758789
"627","M83709","GP PRACTICE","BADDELEY GREEN SURGERY","UPRN",53.0609032,-2.1340225
"628","Y05102","GP PRACTICE","BADDOW HOSPITAL","UPRN",51.706993,0.503514
"629","F81114","GP PRACTICE","BADDOW VILLAGE SURGERY","UPRN",51.7188755,0.5034933
"630","Y05241","GP PRACTICE","BADGER AVS","UPRN",52.4775376,-1.8781871
"631","Y01866","GP PRACTICE","BADGER GROUP OOH","UPRN",52.4775376,-1.8781871
"632","Y02192","GP PRACTICE","BADGER HEALTHCARE LTD OOH","UPRN",52.8040754,-1.6384196
"633","Y03653","GP PRACTICE","BADGER OOH","UPRN",52.4775376,-1.8781871
"634","Y00694","GP PRACTICE","BADGER OUT OF HOURS SERVICE","PostCode",52.4171208147369,-1.77436529637495
"635","J82042","GP PRACTICE","BADGERSWOOD SURGERY","UPRN",51.1188361,-0.8290133
"636","Y08754","GP PRACTICE","BADHAM PHARMACY","UPRN",51.8891163,-2.0540271
"637","Y08333","GP PRACTICE","BADHAM PHARMACY","PostCode",51.8824843422714,-2.17155906231429
"638","M92654","GP PRACTICE","BAGARY'S MEDICAL PRACTICE","UPRN",52.6097181,-2.1142073
"639","B83022","GP PRACTICE","BAILDON MEDICAL PRACTICE","UPRN",53.8532256,-1.7693554
"640","A91087","GP PRACTICE","BAIRD MEDICAL CENTRE","PostCode",51.497956252707,-0.118904903443082
"641","C84693","GP PRACTICE","BAKERSFIELD MEDICAL CENTRE","UPRN",52.960358,-1.1031527
"642","F84681","GP PRACTICE","BALAAM STREET PRACTICE","UPRN",51.5258071,0.0238945
"643","M83074","GP PRACTICE","BALANCE STREET","UPRN",52.8971345,-1.8635273
"644","Y05369","GP PRACTICE","BALDERTON SURGERY","UPRN",53.0530689,-0.7879068
"645","M85118","GP PRACTICE","BALDWINS LANE SURGERY","UPRN",52.4145284,-1.8459868
"646","F81155","GP PRACTICE","BALFOUR MEDICAL CENTRE","UPRN",51.4861255,0.3365653
"647","F86042","GP PRACTICE","BALFOUR ROAD SURGERY","UPRN",51.5628724,0.0755036
"648","H85637","GP PRACTICE","BALHAM HEALTH CENTRE","UPRN",51.4408505,-0.1490411
"649","H85066","GP PRACTICE","BALHAM PARK SURGERY","UPRN",51.4407239,-0.1558524
"650","H82065","GP PRACTICE","BALL TREE SURGERY","UPRN",50.8331532,-0.3387417
"651","F81150","GP PRACTICE","BALLARDS WALK SURGERY","UPRN",51.5739124,0.4419784
"652","Y00009","GP PRACTICE","BALLASALLA GROUP PRACTICE","PostCode",NA,NA
"653","G84040","GP PRACTICE","BALLATER SURGERY","UPRN",51.3822004,0.0950262
"654","G82036","GP PRACTICE","BALMORAL SURGERY","UPRN",51.2138147,1.3988217
"655","K81014","GP PRACTICE","BALMORE PARK SURGERY","UPRN",51.4695733,-0.9735438
"656","M89016","GP PRACTICE","BALSALL COMMON & MERIDEN GROUP PRACTICE","UPRN",52.3949718,-1.6438522
"657","Y02879","GP PRACTICE","BALSALL COMMON ENT CLINIC","UPRN",52.3949718,-1.6438522
"658","M85766","GP PRACTICE","BALSALL HEATH HEALTH CENTRE (S)","UPRN",52.4574389,-1.8868391
"659","Y07408","GP PRACTICE","BAMHS","PostCode",53.3800265999355,-3.02653056544335
"660","K84010","GP PRACTICE","BAMPTON SURGERY","UPRN",51.7296729,-1.5474375
"661","Y07679","GP PRACTICE","BANBURY ALLIANCE PCN HUB","UPRN",52.0512388,-1.3364783
"662","K84028","GP PRACTICE","BANBURY CROSS HEALTH CENTRE","UPRN",52.0574391,-1.3406746
"663","K84021","GP PRACTICE","BANBURY ROAD MEDICAL CENTRE","PostCode",51.7747689289872,-1.26353449189767
"664","E82053","GP PRACTICE","BANCROFT MEDICAL CENTRE","UPRN",51.9512185,-0.2774246
"665","Y08692","GP PRACTICE","BANES & WILTS NEURODEVELOPMENT SERVICE","PostCode",51.3581665950364,-2.37262103443271
"666","Y04816","GP PRACTICE","BANES BLADDER AND BOWEL TEAM","UPRN",51.357328,-2.3701855
"667","Y04037","GP PRACTICE","BANES COMMUNITY NURSING","PostCode",51.3581665950364,-2.37262103443271
"668","Y03925","GP PRACTICE","BANES COMMUNITY PAEDIATRICS","UPRN",51.3581655,-2.3726194
"669","Y07378","GP PRACTICE","BANES COMMUNITY SKIN SURGERY SERVICE","UPRN",51.3764395,-2.3547809
"670","Y03121","GP PRACTICE","BANES COPD IMPACT SERVICE","UPRN",51.3581655,-2.3726194
"671","Y04513","GP PRACTICE","BANES DOCTORS URGENT CARE (BATH)","PostCode",51.0153352079039,-3.0908056141801
"672","Y04512","GP PRACTICE","BANES DOCTORS URGENT CARE (PAULTON)","UPRN",51.3933646,-2.428873
"673","Y08729","GP PRACTICE","BANES DRUG AND ALCOHOL TREATMENT SERVICE","PostCode",51.3859854139297,-2.35870661203472
"674","Y04929","GP PRACTICE","BANES ENHANCED MEDICAL SERVICE (BEMS+)","UPRN",51.3862149,-2.4460508
"675","Y05158","GP PRACTICE","BANES HEALTH VISITORS","PostCode",51.3581665950364,-2.37262103443271
"676","Y04137","GP PRACTICE","BANES NEUROLOGY OUTPATIENTS","UPRN",51.357328,-2.3701855
"677","Y06742","GP PRACTICE","BANES PODIATRY","PostCode",51.3581665950364,-2.37262103443271
"678","Y05255","GP PRACTICE","BANES PRACTICE-BASED PHYSIOTHERAPY","UPRN",51.357328,-2.3701855
"679","G84609","GP PRACTICE","BANK HOUSE SURGERY","UPRN",51.3591905,0.0700901
"680","B84016","GP PRACTICE","BANKFIELD SURGERY","UPRN",53.6863459,-1.8351477
"681","A99895","GP PRACTICE","BANKFIELDS-FLATS - BCSS INPATIENT UNIT","UPRN",54.5434951,-1.5911434
"682","A99891","GP PRACTICE","BANKFIELDS-UNIT 3 - BCSS INPATIENT UNIT","PostCode",54.5533525101406,-1.15348534386508
"683","A99890","GP PRACTICE","BANKFIELDS-UNIT 4 - BCSS INPATIENT UNIT","PostCode",54.5533525101406,-1.15348534386508
"684","A81007","GP PRACTICE","BANKHOUSE SURGERY","UPRN",54.6817737,-1.2151517
"685","G83654","GP PRACTICE","BANNOCKBURN SURGERY","UPRN",51.4881671,0.0945753
"686","M81049","GP PRACTICE","BARBOURNE HEALTH CENTRE","UPRN",52.209058,-2.2247199
"687","J83005","GP PRACTICE","BARCROFT MEDICAL CENTRE","UPRN",51.1730841,-1.7792127
"688","Y04600","GP PRACTICE","BARDOC GP OOH","PostCode",53.5904282998285,-2.42777110529434
"689","Y03086","GP PRACTICE","BARKANTINE WALK-IN CTR","UPRN",51.4986908,-0.0255159
"690","Y07571","GP PRACTICE","BARKING & DAGENHAM CENTRAL PCN HUB","UPRN",51.5613957,0.1243322
"691","Y06073","GP PRACTICE","BARKING DRUG & ALCOHOL RECOVERY","PostCode",51.5523312190582,0.164460670272346
"692","Y06853","GP PRACTICE","BARKING HOSPITAL URGENT TREATMENT CENTRE","UPRN",51.5385626,0.0987523
"693","F82018","GP PRACTICE","BARKING MEDICAL GROUP PRACTICE","UPRN",51.5411876,0.0974327
"694","Y07572","GP PRACTICE","BARKING&DAGENHAM EAST ONE PCN EAS","UPRN",51.5512104,0.1310846
"695","Y07575","GP PRACTICE","BARKING&DAGENHAM EAST PCN EAS","UPRN",51.5512104,0.1310846
"696","Y07573","GP PRACTICE","BARKING&DAGENHAM NEW WEST PCN EAS","UPRN",51.5385626,0.0987523
"697","Y07574","GP PRACTICE","BARKING&DAGENHAM NORTH PCN EAS","UPRN",51.5351876,0.1521392
"698","Y07576","GP PRACTICE","BARKING&DAGENHAM WEST PCN EAS","UPRN",51.5385626,0.0987523
"699","A99922","GP PRACTICE","BARKING, HAVERING AND REDBRIDGE BCSC","UPRN",51.5686529,0.1790541
"700","C81662","GP PRACTICE","BARLBOROUGH MEDICAL PRACTICE","UPRN",53.2893864,-1.2842002
"701","Y01011","GP PRACTICE","BARLBY SURGERY","PostCode",51.522359707802,-0.217217871480596
"702","W92008","GP PRACTICE","BARLOW HOUSE SURGERY","UPRN",51.7139592,-5.0343918
"703","P84034","GP PRACTICE","BARLOW MEDICAL CENTRE","UPRN",53.4126385,-2.2316561
"704","H82087","GP PRACTICE","BARN SURGERY","UPRN",50.8139447,-0.4473231
"705","A83046","GP PRACTICE","BARNARD CASTLE SURGERY","UPRN",54.545717,-1.9161622
"706","G83004","GP PRACTICE","BARNARD MEDICAL GROUP","UPRN",51.4279195,0.1055759
"707","C84009","GP PRACTICE","BARNBY GATE SURGERY","UPRN",53.0749513,-0.8049666
"708","F85710","GP PRACTICE","BARNDOC (ENFIELD PATIENTS) OOH","UPRN",51.6507958,-0.1482205
"709","Y08708","GP PRACTICE","BARNES PHARMACY","UPRN",51.8296662,-0.2153024
"710","Y03823","GP PRACTICE","BARNET CCG-CLCH (NMP)","PostCode",51.4737672975319,-0.199155254795468
"711","Y03422","GP PRACTICE","BARNET COPD SERVICE","UPRN",51.6064789,-0.2712456
"712","Y06398","GP PRACTICE","BARNET FED ANICOAG SERVICE","UPRN",51.6127135,-0.1779161
"713","Y05258","GP PRACTICE","BARNET FEDERATED GPS LIMITED","UPRN",51.6127135,-0.1779161
"714","Y08022","GP PRACTICE","BARNET HOSPITAL AT HOME","UPRN",51.6054557,-0.1765931
"715","Y07840","GP PRACTICE","BARNET PCN 3 EAS","PostCode",51.6128569584643,-0.17786896710899
"716","Y07845","GP PRACTICE","BARNET PCN 4 EAS","PostCode",51.6128569584643,-0.17786896710899
"717","Y07844","GP PRACTICE","BARNET PCN 5 EAS","PostCode",51.6128569584643,-0.17786896710899
"718","Y07973","GP PRACTICE","BARNET PCN 6 EAS HUB","PostCode",51.6128569584643,-0.17786896710899
"719","Y07963","GP PRACTICE","BARNET PCN1D EAS HUB","PostCode",51.6128569584643,-0.17786896710899
"720","Y07932","GP PRACTICE","BARNET PCN1W EAS HUB","UPRN",51.6127135,-0.1779161
"721","Y07866","GP PRACTICE","BARNET PCN2 EAS HUB","PostCode",51.6128569584643,-0.17786896710899
"722","B81628","GP PRACTICE","BARNETBY MEDICAL CENTRE","UPRN",53.5742186,-0.4032388
"723","L83024","GP PRACTICE","BARNFIELD HILL SURGERY","UPRN",50.7234466,-3.519888
"724","P81078","GP PRACTICE","BARNOLDSWICK MED CTR","PostCode",53.9151757128567,-2.18585183111825
"725","F83033","GP PRACTICE","BARNSBURY MEDICAL PRACTICE","UPRN",51.5393231,-0.119236
"726","Y05711","GP PRACTICE","BARNSLEY DRUG & ALCOHOL SERVICE","PostCode",53.5498583618884,-1.47756645137136
"727","Y03596","GP PRACTICE","BARNSLEY HOSPICE","UPRN",53.5609162,-1.5138007
"728","Y05557","GP PRACTICE","BARNSLEY HOSPITAL UCC","UPRN",53.5591467,-1.4994975
"729","C88091","GP PRACTICE","BARNSLEY ROAD SURGERY","UPRN",53.4246688,-1.4567244
"730","Y05405","GP PRACTICE","BARNSLEY SEXUAL HEALTH SERVICE","UPRN",53.5535849,-1.4864244
"731","M81078","GP PRACTICE","BARNT GREEN SURGERY","UPRN",52.3593123,-1.99124
"732","Y02693","GP PRACTICE","BAROMETER CLINIC","UPRN",51.4695733,-0.9735438
"733","D83059","GP PRACTICE","BARRACK LANE MEDICAL CENTRE","UPRN",52.0606768,1.1462001
"734","P91603","GP PRACTICE","BARRINGTON MEDICAL CENTRE","PostCode",53.3874351654699,-2.3526300042623
"735","C82062","GP PRACTICE","BARROW HEALTH CENTRE","UPRN",52.7519478,-1.150402
"736","Y05424","GP PRACTICE","BARROW PHARMACY NMP SERVICES","PostCode",54.1023277540604,-3.22920713943306
"737","P81757","GP PRACTICE","BARROWFORD SURGERY","UPRN",53.8492692,-2.2213656
"738","B81068","GP PRACTICE","BARTHOLOMEW MEDICAL GROUP","UPRN",53.7167234,-0.8728637
"739","K84032","GP PRACTICE","BARTLEMAS SURGERY","UPRN",51.7471906,-1.2324739
"740","H81013","GP PRACTICE","BARTLETT GROUP PRACTICE","PostCode",51.3027328616322,-0.725506898476994
"741","Y01146","GP PRACTICE","BARTLEY GREEN MEDICAL CENTRE","UPRN",52.4354675,-2.0045683
"742","M85117","GP PRACTICE","BARTLEY GREEN MEDICAL PRACTICE","UPRN",52.4354675,-2.0045683
"743","M83065","GP PRACTICE","BARTON","UPRN",52.7614995,-1.7253137
"744","E81632","GP PRACTICE","BARTON HILLS MEDICAL GROUP","PostCode",51.9198820197392,-0.437945526605099
"745","F84008","GP PRACTICE","BARTON HOUSE GROUP PRACTICE","UPRN",51.5604631,-0.0838966
"746","J81074","GP PRACTICE","BARTON HOUSE MED PRACTICE","UPRN",50.8100033,-2.7373603
"747","Y05014","GP PRACTICE","BARTON MOSS SECURE CHILDREN'S HOME","UPRN",53.46885,-2.3968688
"748","Y06986","GP PRACTICE","BARTON MOSS SECURE CHILDREN'S HOME","UPRN",53.46885,-2.3968688
"749","L83005","GP PRACTICE","BARTON SURGERY","UPRN",50.5804192,-3.4739204
"750","Y05462","GP PRACTICE","BARTS HEALTH NHS TRUST CHS","UPRN",51.5250492,-0.0421791
"751","C82061","GP PRACTICE","BARWELL & HOLLYCROFT MEDICAL CENTRES","PostCode",52.5656561624467,-1.34802816341422
"752","Y08153","GP PRACTICE","BASILDON & BRENTWOOD MHP","PostCode",51.5914535301569,0.496194618176707
"753","C81013","GP PRACTICE","BASLOW HEALTH CENTRE","UPRN",53.2465549,-1.6171433
"754","Y06563","GP PRACTICE","BASSET LAW DERMATOLOGY SERVICE","UPRN",52.4693962,-1.9231567
"755","Y00581","GP PRACTICE","BASSETLAW DRUG & ALCOHOL SERVICE","UPRN",53.325904,-0.9547812
"756","Y01696","GP PRACTICE","BASSETLAW HOSPICE","UPRN",53.3257061,-0.9555986
"757","Y06464","GP PRACTICE","BASSETLAW LYMPHOEDEMA SERVICE","PostCode",53.4948010052808,-1.14597576590662
"758","Y00814","GP PRACTICE","BASSETLAW OOH URGENT CARE SERVICE","UPRN",53.3165748,-1.1102779
"759","Y08082","GP PRACTICE","BASSETLAW SAS PRACTICE","PostCode",53.3255688072008,-0.950990883283935
"760","Y08234","GP PRACTICE","BASSETT PHARMACY","UPRN",50.9340261,-1.4184042
"761","A91221","GP PRACTICE","BASSINGBOURN MEDICAL CENTRE","UPRN",52.0932284,-0.0435744
"762","E85716","GP PRACTICE","BATH ROAD SURGERY","UPRN",51.4693457,-0.3771803
"763","M85025","GP PRACTICE","BATH ROW MEDICAL PRACTICE","UPRN",52.4726379,-1.9084644
"764","M87621","GP PRACTICE","BATH STREET MEDICAL CENTRE","UPRN",52.5461286,-2.1124049
"765","A99956","GP PRACTICE","BATH, SWINDON AND WILTSHIRE BCSC","UPRN",51.0439403,-1.7898134
"766","L81027","GP PRACTICE","BATHEASTON MEDICAL CENTRE","UPRN",51.4060297,-2.3173848
"767","B85008","GP PRACTICE","BATLEY HEALTH CENTRE SURGERY","UPRN",53.7153414,-1.6364885
"768","H85111","GP PRACTICE","BATTERSEA FIELDS PRACTICE","UPRN",51.473476,-0.1547486
"769","Y08006","GP PRACTICE","BATTERSEA PCN HUB","UPRN",51.473476,-0.1547486
"770","H85049","GP PRACTICE","BATTERSEA RISE GROUP PRACTICE","UPRN",51.4607772,-0.1632645
"771","A91204","GP PRACTICE","BATUK MEDICAL CENTRE","UPRN",51.5519791,-0.4093728
"772","C84101","GP PRACTICE","BAWTRY AND BLYTH MEDICAL","UPRN",53.4318925,-1.0194508
"773","Y01008","GP PRACTICE","BAY MEDICAL GROUP","UPRN",54.0417258,-2.8940562
"774","Y05448","GP PRACTICE","BAY MEDICAL GROUP EXTENDED OOH","PostCode",54.0728388329329,-2.85956470222966
"775","Y05625","GP PRACTICE","BB HEALTHCARE SOLUTIONS","UPRN",51.5785016,0.489768
"776","Y05823","GP PRACTICE","BCA GP STREAMING SERVICE","PostCode",53.8059781234258,-1.79469659635822
"777","Y04443","GP PRACTICE","BCCG PHARMACIST PRESCRIBER","PostCode",52.0082487341329,-0.410888161125864
"778","Y05398","GP PRACTICE","BCDAT-SP PRESCRIBER","UPRN",53.7935419,-1.7720965
"779","Y04656","GP PRACTICE","BCHC COMMUNITY MEDICAL ASSESSMENT UNIT","UPRN",52.4459364,-1.8928827
"780","Y05789","GP PRACTICE","BCHC HEALTH RESPITE","PostCode",52.4459205790132,-1.89289139943892
"781","Y03942","GP PRACTICE","BCHC MEDICINES MANAGEMENT","PostCode",52.398204778013,-1.95377821265804
"782","Y04217","GP PRACTICE","BCPFT CYP&F GROUP","UPRN",52.4838651,-2.1559067
"783","D82003","GP PRACTICE","BEACHES MEDICAL CENTRE","PostCode",52.57712162743,1.72773433175185
"784","A91151","GP PRACTICE","BEACHLEY MEDICAL CENTRE","PostCode",51.6201950658882,-2.65140220690543
"785","F81100","GP PRACTICE","BEACON HEALTH GROUP-DANBURY MEDICAL CTR","PostCode",51.7166666101253,0.587566229681332
"786","N82022","GP PRACTICE","BEACON HEALTH KENSINGTON","UPRN",53.4083687,-2.9489927
"787","N82107","GP PRACTICE","BEACON HEALTH MOSSLEY HILL","UPRN",53.3870127,-2.9112534
"788","Y01297","GP PRACTICE","BEACON HOUSE MINISTRIES","UPRN",51.8875328,0.8939606
"789","B81003","GP PRACTICE","BEACON MEDICAL","UPRN",53.5568688,-0.0368434
"790","P84033","GP PRACTICE","BEACON MEDICAL CENTRE","UPRN",53.5343576,-2.2192084
"791","L83100","GP PRACTICE","BEACON MEDICAL GROUP","PostCode",50.3862596673786,-4.052626084775
"792","C83019","GP PRACTICE","BEACON MEDICAL PRACTICE","PostCode",53.1576311951257,0.331227572562551
"793","Y04787","GP PRACTICE","BEACON MEDICAL SERVICES LIMITED","PostCode",53.4063101581334,-2.26236847410839
"794","Y06860","GP PRACTICE","BEACON PARK HOSPITAL","UPRN",52.8176808,-2.0747959
"795","Y07620","GP PRACTICE","BEACON PCN ENHANCED ACCESS","UPRN",52.7741175,-1.2200552
"796","P81112","GP PRACTICE","BEACON PRIMARY CARE","UPRN",53.5485129,-2.8036787
"797","G81019","GP PRACTICE","BEACON SURGERY","UPRN",51.0598334,0.1598974
"798","A85026","GP PRACTICE","BEACON VIEW MEDICAL CENTRE","UPRN",54.9338115,-1.5846278
"799","G81042","GP PRACTICE","BEACONSFIELD MEDICAL PRACTICE","UPRN",50.838372,-0.1482657
"800","Y08371","GP PRACTICE","BEAM PARK MEDICAL PRACTICE","UPRN",51.5245084,0.1704855
"801","Y08328","GP PRACTICE","BEAMINSTER PHARMACY","UPRN",50.8096862,-2.740202
"802","M87036","GP PRACTICE","BEAN MEDICAL PRACTICE","UPRN",52.5059945,-2.07568
"803","G82074","GP PRACTICE","BEARSTED","UPRN",51.2679874,0.5727767
"804","M88042","GP PRACTICE","BEARWOOD MEDICAL CENTRE","UPRN",52.4773404,-1.9735218
"805","M88019","GP PRACTICE","BEARWOOD ROAD SURGERY","UPRN",52.4821492,-1.969882
"806","F81083","GP PRACTICE","BEAUCHAMP HOUSE","UPRN",51.7299723,0.4768075
"807","C88046","GP PRACTICE","BEAUCHIEF MEDICAL PRACTICE","UPRN",53.3391051,-1.483115
"808","J81018","GP PRACTICE","BEAUFORT ROAD SURGERY","UPRN",50.7283972,-1.8144358
"809","K84016","GP PRACTICE","BEAUMONT ELMS PRACTICE","UPRN",51.7548144,-1.2618271
"810","C82094","GP PRACTICE","BEAUMONT LODGE MEDICAL PRACTICE","UPRN",52.6584048,-1.1603019
"811","A87011","GP PRACTICE","BEAUMONT PARK SURGERY","UPRN",55.0475808,-1.4739905
"812","Y08582","GP PRACTICE","BEAUTYCHEM CHEMIST","UPRN",51.6048999,-0.0866497
"813","D83009","GP PRACTICE","BECCLES MEDICAL CENTRE","UPRN",52.4533112,1.5629137
"814","Y04789","GP PRACTICE","BECKENHAM BEACON URGENT CARE CENTRE","UPRN",51.4052306,-0.0331823
"815","Y07227","GP PRACTICE","BECKENHAM PCN EXTENDED SERVICE","UPRN",51.4048717,-0.0326944
"816","G85100","GP PRACTICE","BECKETT HOUSE PRACTICE","UPRN",51.4694913,-0.1235206
"817","L85020","GP PRACTICE","BECKINGTON FAMILY PRACTICE","UPRN",51.2669456,-2.2813506
"818","F82677","GP PRACTICE","BECONTREE MEDICAL CENTRE","UPRN",51.559518,0.1420625
"819","H85009","GP PRACTICE","BEDFORD HILL FAMILY PRACTICE","UPRN",51.4408505,-0.1490411
"820","K82039","GP PRACTICE","BEDFORD STREET SURGERY","UPRN",51.9956469,-0.7295031
"821","A99957","GP PRACTICE","BEDFORDSHIRE BCSC","UPRN",51.8942924,-0.4741528
"822","Y02262","GP PRACTICE","BEDFORDSHIRE MSK SERVICE","UPRN",52.1416927,-0.4596558
"823","Y08466","GP PRACTICE","BEDLINGTON PHARMACY","PostCode",55.1321915414347,-1.59866714714287
"824","A84005","GP PRACTICE","BEDLINGTONSHIRE MED.GROUP","UPRN",55.1323274,-1.5992456
"825","L81082","GP PRACTICE","BEDMINSTER FAMILY PRACTICE","UPRN",51.4441571,-2.5942181
"826","Y08305","GP PRACTICE","BEDMINSTER PHARMACY","UPRN",51.4410224,-2.6006381
"827","Y06153","GP PRACTICE","BEDOC HEALTHCARE","UPRN",52.1277568,-0.41888
"828","Y05271","GP PRACTICE","BEDSER HUB","UPRN",51.315131,-0.5562841
"829","E82093","GP PRACTICE","BEDWELL MEDICAL CENTRE","UPRN",51.9041151,-0.1822889
"830","M84011","GP PRACTICE","BEDWORTH HEALTH CENTRE","PostCode",52.4786240993182,-1.47265649455516
"831","P92633","GP PRACTICE","BEE FOLD MEDICAL CENTRE","UPRN",53.5209932,-2.4997535
"832","P92010","GP PRACTICE","BEECH HILL MEDICAL PRACTICE","UPRN",53.5556688,-2.644351
"833","P88012","GP PRACTICE","BEECH HOUSE MEDICAL PRACT","UPRN",53.3794226,-2.1181454
"834","W91033","GP PRACTICE","BEECH HOUSE SURGERY","UPRN",53.1855582,-3.4151649
"835","B82069","GP PRACTICE","BEECH HOUSE SURGERY","UPRN",54.0107847,-1.4651047
"836","B86655","GP PRACTICE","BEECH TREE MEDICAL CENTRE","UPRN",53.7964613,-1.6215125
"837","M84065","GP PRACTICE","BEECH TREE MEDICAL PRACTICE","UPRN",52.37767,-1.2537363
"838","B82041","GP PRACTICE","BEECH TREE SURGERY","UPRN",53.7748165,-1.0806598
"839","Y05465","GP PRACTICE","BEECH WARD","PostCode",51.7042928892072,0.123930434018691
"840","Y06387","GP PRACTICE","BEECH WARD","PostCode",52.6339204680913,1.26246754009213
"841","Y05077","GP PRACTICE","BEECHCARE & PGU","PostCode",51.4202206274452,0.254840591447802
"842","Y03595","GP PRACTICE","BEECHCROFT AND OLD PALACE","PostCode",52.6457977102954,1.21723480724256
"843","M91611","GP PRACTICE","BEECHDALE CENTRE","UPRN",52.5993305,-2.0096967
"844","L84039","GP PRACTICE","BEECHES GREEN SURGERY","UPRN",51.747303,-2.2202462
"845","P81692","GP PRACTICE","BEECHES MEDICAL CENTRE","UPRN",53.7258047,-2.7895525
"846","M82018","GP PRACTICE","BEECHES MEDICAL PRACTICE","UPRN",52.6741034,-2.7720799
"847","H85662","GP PRACTICE","BEECHES SURGERY","UPRN",51.3582983,-0.1712702
"848","C83003","GP PRACTICE","BEECHFIELD MEDICAL CENTRE","UPRN",52.7872814,-0.1458402
"849","Y06025","GP PRACTICE","BEECHFIELD SCH","PostCode",51.1505289010684,-0.103325640751182
"850","B84613","GP PRACTICE","BEECHWOOD MEDICAL CENTRE","UPRN",53.7439162,-1.8823509
"851","F84038","GP PRACTICE","BEECHWOOD MEDICAL CENTRE","PostCode",51.5460820171017,-0.0705955853005364
"852","L81087","GP PRACTICE","BEECHWOOD MEDICAL PRACTICE","UPRN",51.4796832,-2.526567
"853","F81023","GP PRACTICE","BEECHWOOD SURGERY","UPRN",51.6080252,0.2957495
"854","P81742","GP PRACTICE","BEECHWOOD SURGERY","PostCode",53.8715659096551,-3.00905730420681
"855","W93053","GP PRACTICE","BEECHWOOD SURGERY","UPRN",51.588284,-2.9642498
"856","P82616","GP PRACTICE","BEEHIVE SURGERY","UPRN",53.5636897,-2.4186359
"857","B86667","GP PRACTICE","BEESTON VILLAGE SURGERY","UPRN",53.7721091,-1.5672478
"858","Y07065","GP PRACTICE","BEIGHTON COMMUNITY CAMHS","UPRN",53.3450794,-1.3502603
"859","A84008","GP PRACTICE","BELFORD MEDICAL PRACTICE","UPRN",55.5957326,-1.8271812
"860","Y07528","GP PRACTICE","BELGRAVE & SPINNEY HILL PCN ENHANCED ACC","UPRN",52.6367679,-1.108921
"861","M83068","GP PRACTICE","BELGRAVE MEDICAL CENTRE","UPRN",52.9789618,-2.1322093
"862","E87753","GP PRACTICE","BELGRAVE MEDICAL CENTRE","PostCode",51.4906488158234,-0.151357478199608
"863","E87005","GP PRACTICE","BELGRAVIA SURGERY","UPRN",51.4949511,-0.1485082
"864","E81005","GP PRACTICE","BELL HOUSE MEDICAL CENTRE","UPRN",51.8845914,-0.4277823
"865","B86081","GP PRACTICE","BELLBROOKE SURGERY","UPRN",53.8090564,-1.5060477
"866","N82094","GP PRACTICE","BELLE VALE HEALTH CENTRE","UPRN",53.3920502,-2.8597524
"867","Y04494","GP PRACTICE","BELLE VUE (HOSPITAL BEDS)","UPRN",54.571077,-1.215547
"868","G83009","GP PRACTICE","BELLEGROVE SURGERY","UPRN",51.4645609,0.0958173
"869","M85124","GP PRACTICE","BELLEVUE MEDICAL CENTRE","UPRN",52.465214,-1.9014355
"870","W93048","GP PRACTICE","BELLEVUE SURGERY","PostCode",51.5773456263274,-2.99655448333361
"871","A84027","GP PRACTICE","BELLINGHAM PRACTICE","UPRN",55.1438441,-2.2580065
"872","A83014","GP PRACTICE","BELMONT & SHERBURN MEDICAL GROUP","UPRN",54.7863108,-1.5260704
"873","E84069","GP PRACTICE","BELMONT HEALTH CENTRE","UPRN",51.6011155,-0.3205901
"874","E86009","GP PRACTICE","BELMONT MEDICAL CENTRE","UPRN",51.5482661,-0.4780152
"875","E85049","GP PRACTICE","BELMONT MEDICAL CENTRE","UPRN",51.500849,-0.385182
"876","M81093","GP PRACTICE","BELMONT MEDICAL CENTRE","UPRN",52.0412868,-2.7395032
"877","F83658","GP PRACTICE","BELSIZE PRIORY MEDICAL PRACTICE (GROUP)","UPRN",51.5404055,-0.1859874
"878","G83052","GP PRACTICE","BELVEDERE MEDICAL CENTRE","UPRN",51.4821764,0.1446446
"879","M82048","GP PRACTICE","BELVIDERE MEDICAL PRACT.","UPRN",52.7074561,-2.7294345
"880","C84017","GP PRACTICE","BELVOIR HEALTH GROUP","UPRN",52.9121061,-0.9808705
"881","P84029","GP PRACTICE","BENCHILL MEDICAL PRACTICE","PostCode",53.3866307868514,-2.25563190775068
"882","A86023","GP PRACTICE","BENFIELD PARK MEDICAL GROUP","PostCode",54.9893638592864,-1.56161585333014
"883","Y07493","GP PRACTICE","BENFLEET PCN HUB","UPRN",51.5707371,0.5481942
"884","F81713","GP PRACTICE","BENFLEET SURGERY","UPRN",51.5540719,0.5605778
"885","H85031","GP PRACTICE","BENHILL & BELMONT GP CENTRE","UPRN",51.3666022,-0.1902645
"886","N82067","GP PRACTICE","BENIM MEDICAL CENTRE","UPRN",53.418401,-2.9472091
"887","E82032","GP PRACTICE","BENNETTS END SURGERY","UPRN",51.7409311,-0.4499551
"888","M84067","GP PRACTICE","BENNFIELD SURGERY","UPRN",52.3728981,-1.2656276
"889","A85002","GP PRACTICE","BENSHAM FAMILY PRACTICE","UPRN",54.9527943,-1.6160037
"890","A91029","GP PRACTICE","BENSON MEDICAL CENTRE","PostCode",51.6130058606555,-1.08802384025934
"891","B82061","GP PRACTICE","BENTHAM MEDICAL PRACTICE","UPRN",54.1192173,-2.5117389
"892","Y02657","GP PRACTICE","BENTHAM ROAD HEALTH CENTRE","UPRN",53.7305992,-2.5062676
"893","A81018","GP PRACTICE","BENTLEY MEDICAL PRACTICE","UPRN",54.6007926,-1.0697402
"894","J81020","GP PRACTICE","BERE REGIS SURGERY","UPRN",50.7531774,-2.2191849
"895","A91095","GP PRACTICE","BERECHURCH HALL MEDICAL CENTRE","PostCode",51.8586526154229,0.893457082059063
"896","K84023","GP PRACTICE","BERINSFIELD HEALTH CENTRE","UPRN",51.663749,-1.1775142
"897","L84030","GP PRACTICE","BERKELEY PLACE SURGERY","PostCode",51.9105758444612,-2.05605222366078
"898","Y04369","GP PRACTICE","BERKELEY VALE LOCALITY NURSE PRESCRIBER","UPRN",51.8470802,-2.1763841
"899","A99923","GP PRACTICE","BERKSHIRE BCSC","UPRN",51.5320091,-0.5739734
"900","Y05505","GP PRACTICE","BERKSHIRE CONTINENCE SERVICE (EAST)","PostCode",51.4101926304178,-0.845602798775049
"901","Y05973","GP PRACTICE","BERKSHIRE OPHTHALMOLOGY SERVICE","UPRN",52.4693962,-1.9231567
"902","W91624","GP PRACTICE","BERLLAN SURGERY","UPRN",53.1873899,-3.4104167
"903","G85623","GP PRACTICE","BERMONDSEY SPA MEDICAL CENTRE","UPRN",51.497006,-0.0691331
"904","P81055","GP PRACTICE","BERRY LANE MEDICAL CENTRE","UPRN",53.8307871,-2.6035477
"905","Y01964","GP PRACTICE","BERRYCROFT COMMUNITY HEALTH CENTRE","UPRN",51.8352078,-0.8493346
"906","H84053","GP PRACTICE","BERRYLANDS SURGERY","UPRN",51.3908222,-0.2999263
"907","N83008","GP PRACTICE","BERRYMEAD FAMILY MED.CTR.","UPRN",53.4440613,-2.6984994
"908","H82016","GP PRACTICE","BERSTED GREEN SURGERY","UPRN",50.7982922,-0.6816866
"909","F82649","GP PRACTICE","BERWICK SURGERY","UPRN",51.5267083,0.2140579
"910","N83054","GP PRACTICE","BETHANY MEDICAL CENTRE","UPRN",53.4531857,-2.7586155
"911","G82105","GP PRACTICE","BETHESDA MEDICAL CENTRE","UPRN",51.3918679,1.4064343
"912","F84083","GP PRACTICE","BETHNAL GREEN HEALTH CTR.","UPRN",51.526917,-0.0642287
"913","M83691","GP PRACTICE","BETLEY SURGERY","PostCode",53.0246395608188,-2.36864121995179
"914","A86030","GP PRACTICE","BETTS AVENUE MEDICAL GROUP","UPRN",54.9730471,-1.6739246
"915","W00006","GP PRACTICE","BETTWS HEALTH CENTRE","UPRN",51.6126199,-3.0283845
"916","B83657","GP PRACTICE","BEVAN COMMUNITY BENEFIT SOCIETY","UPRN",53.7955812,-1.7533524
"917","N81011","GP PRACTICE","BEVAN GROUP PRACTICE","UPRN",53.379746,-2.7242518
"918","Y08716","GP PRACTICE","BEVAN HEALTH INCLUSION - CALDERDALE","UPRN",53.7955812,-1.7533524
"919","Y08186","GP PRACTICE","BEVAN HEALTH INCLUSION SERVICE WAKEFIELD","UPRN",53.7955812,-1.7533524
"920","Y07962","GP PRACTICE","BEVAN HEALTH INCLUSION WAKEFIELD","UPRN",53.7955812,-1.7533524
"921","Y07021","GP PRACTICE","BEVAN LIMITED","UPRN",53.7874285,-0.3213674
"922","A83616","GP PRACTICE","BEVAN MEDICAL GROUP","UPRN",54.7612202,-1.3874506
"923","Y00540","GP PRACTICE","BEVERLEY URGENT CARE CENTRE OOH","UPRN",53.8527928,-0.4131796
"924","Y01694","GP PRACTICE","BEVERLEY/HOLDERNESS DERMATOLOGIST","UPRN",53.8408896,-0.4351875
"925","H82088","GP PRACTICE","BEWBUSH MEDICAL CENTRE","UPRN",51.1041906,-0.2232833
"926","M81057","GP PRACTICE","BEWDLEY MEDICAL CENTRE","UPRN",52.3770488,-2.3174409
"927","A83037","GP PRACTICE","BEWICK CRESCENT SURGERY","UPRN",54.617559,-1.5718703
"928","A85017","GP PRACTICE","BEWICK ROAD SURGERY","UPRN",54.9564056,-1.6016659
"929","A87013","GP PRACTICE","BEWICKE MEDICAL CENTRE","UPRN",54.996459,-1.5006519
"930","Y04646","GP PRACTICE","BEXDOC GP SERVICE OOH","UPRN",51.4190412,0.101687
"931","Y07792","GP PRACTICE","BEXHILL PCN HUB","UPRN",50.8423015,0.4335882
"932","Y06075","GP PRACTICE","BEXLEY 0-19 SERVICE","PostCode",51.377275141327,0.0104976786616889
"933","Y05423","GP PRACTICE","BEXLEY ANTICOAGULATION SERVICE","PostCode",51.4645583931124,0.0957904132650963
"934","Y03740","GP PRACTICE","BEXLEY COMMUNITY HEALTH SERVICES","PostCode",51.4347924202133,0.174740654764394
"935","Y08428","GP PRACTICE","BEXLEY E.D. CLINIC","UPRN",51.4914547,0.1516493
"936","G83028","GP PRACTICE","BEXLEY GROUP PRACTICE","PostCode",51.4658294841429,0.109655914392577
"937","G83053","GP PRACTICE","BEXLEY MEDICAL GROUP","UPRN",51.4745142,0.1263852
"938","Y08499","GP PRACTICE","BGPA ANTICOAGULATION LEWISHAM","UPRN",51.4052306,-0.0331823
"939","K81083","GP PRACTICE","BHARANI MEDICAL CENTRE","UPRN",51.520542,-0.6473952
"940","Y04061","GP PRACTICE","BHC DERMATOLOGY (GREENWICH)","UPRN",51.376989,0.0100523
"941","Y04062","GP PRACTICE","BHC GYNAECOLOGY (GREENWICH)","UPRN",51.376989,0.0100523
"942","Y04063","GP PRACTICE","BHC MINOR SURGERY (GREENWICH)","UPRN",51.376989,0.0100523
"943","Y03830","GP PRACTICE","BHC NON MEDICAL PRESCRIBERS","UPRN",51.376989,0.0100523
"944","Y05363","GP PRACTICE","BHF HIGHGATE SURGERY","UPRN",53.5739677,-1.3789358
"945","Y05364","GP PRACTICE","BHF LUNDWOOD SURGERY","PostCode",53.5577082868389,-1.4385376696989
"946","Y04228","GP PRACTICE","BHFT (BRACKNELL)","UPRN",51.417222,-0.7528974
"947","Y04226","GP PRACTICE","BHFT (SLOUGH)","UPRN",51.5053609,-0.5937402
"948","Y04227","GP PRACTICE","BHFT (WAM)","UPRN",51.5247815,-0.7448714
"949","Y05675","GP PRACTICE","BHNC ENHANCED ACCESS SERVICE","UPRN",51.4428164,0.1513893
"950","Y05372","GP PRACTICE","BI-BOROUGH ALCOHOL SERVICE","UPRN",51.4880749,-0.1401874
"951","K84052","GP PRACTICE","BICESTER HEALTH CENTRE","UPRN",51.8967499,-1.1572198
"952","A91109","GP PRACTICE","BICESTER MEDICAL CENTRE","PostCode",51.844851310335,-1.10715425660791
"953","Y07676","GP PRACTICE","BICESTER PCN HUB","UPRN",51.8967499,-1.1572198
"954","A91062","GP PRACTICE","BICKLEIGH MEDICAL CENTRE","PostCode",50.4414797455235,-4.08222524020397
"955","A86010","GP PRACTICE","BIDDLESTONE HEALTH GROUP","UPRN",54.9895637,-1.5773968
"956","M83089","GP PRACTICE","BIDDULPH DOCTORS","UPRN",53.115565,-2.1773205
"957","Y01893","GP PRACTICE","BIDDULPH DRUG MISUSE","UPRN",53.113202,-2.1701347
"958","M83046","GP PRACTICE","BIDDULPH VALLEY SURGERY","UPRN",53.115565,-2.1773205
"959","L83083","GP PRACTICE","BIDEFORD MEDICAL CENTRE","UPRN",51.0176387,-4.2138587
"960","M84018","GP PRACTICE","BIDFORD HEALTH CENTRE","UPRN",52.1719818,-1.8343724
"961","A91183","GP PRACTICE","BIELEFELD MEDICAL CENTRE","PostCode",NA,NA
"962","N82671","GP PRACTICE","BIGHAM ROAD MEDICAL CENTRE","UPRN",53.4135751,-2.9459284
"963","Y06356","GP PRACTICE","BILBOROUGH MEDICAL CENTRE","UPRN",52.9647376,-1.2290956
"964","M83097","GP PRACTICE","BILBROOK MEDICAL CENTRE","PostCode",52.6247724513771,-2.18174902307634
"965","D83006","GP PRACTICE","BILDESTON HEALTH CENTRE","UPRN",52.1053179,0.9085889
"966","Y07492","GP PRACTICE","BILLERICAY PCN HUB","UPRN",51.6306585,0.4207462
"967","F82675","GP PRACTICE","BILLET LANE MEDICAL PRACTICE","PostCode",51.5667443735115,0.218982159248561
"968","N83019","GP PRACTICE","BILLINGE MEDICAL PRACTICE","PostCode",53.4976634973358,-2.70695082807738
"969","C83030","GP PRACTICE","BILLINGHAY MEDICAL PRACTICE","UPRN",53.0782151,-0.2768014
"970","H82055","GP PRACTICE","BILLINGSHURST SURGERY","UPRN",51.0249767,-0.445769
"971","C84123","GP PRACTICE","BILSTHORPE SURGERY","UPRN",53.1421461,-1.0349131
"972","M92627","GP PRACTICE","BILSTON FAMILY PRACTICE","PostCode",52.5688986306855,-2.07711926767133
"973","Y02757","GP PRACTICE","BILSTON URBAN VILLAGE MEDICAL CENTRE","UPRN",52.5627051,-2.0760259
"974","B83660","GP PRACTICE","BILTON MEDICAL CENTRE","UPRN",53.7986704,-1.7701407
"975","C83643","GP PRACTICE","BINBROOK SURGERY","UPRN",53.4270987,-0.1788032
"976","F85625","GP PRACTICE","BINCOTE SURGERY","UPRN",51.6538789,-0.1103336
"977","G85123","GP PRACTICE","BINFIELD ROAD SURGERY","UPRN",51.4726316,-0.1236366
"978","K81060","GP PRACTICE","BINFIELD SURGERY","UPRN",51.4279745,-0.7791431
"979","Y00631","GP PRACTICE","BINGLEY DERMATOLOGY CLINIC","UPRN",53.8469075,-1.8287133
"980","B83014","GP PRACTICE","BINGLEY MEDICAL PRACTICE","UPRN",53.8469075,-1.8287133
"981","H81026","GP PRACTICE","BINSCOMBE MEDICAL CENTRE","UPRN",51.2031482,-0.6145249
"982","A82035","GP PRACTICE","BIRBECK MEDICAL GROUP","UPRN",54.6559708,-2.7435796
"983","Y08425","GP PRACTICE","BIRCH WARD","UPRN",52.6202995,1.2688475
"984","F84641","GP PRACTICE","BIRCHDALE ROAD MEDICAL CENTRE","UPRN",51.5475293,0.0381561
"985","M83123","GP PRACTICE","BIRCHES HEAD MEDICAL CTR.","UPRN",53.0355843,-2.1548753
"986","W97021","GP PRACTICE","BIRCHGROVE SURGERY","UPRN",51.5168874,-3.2011484
"987","M91629","GP PRACTICE","BIRCHILLS HEALTH CENTRE","UPRN",52.5910805,-1.9963947
"988","G82666","GP PRACTICE","BIRCHINGTON MEDICAL CENTRE","UPRN",51.3761821,1.2976476
"989","N81114","GP PRACTICE","BIRCHWOOD MEDICAL CENTRE","UPRN",53.4154962,-2.5265009
"990","D82059","GP PRACTICE","BIRCHWOOD MEDICAL PRACTICE","UPRN",52.8205158,1.3827093
"991","C83082","GP PRACTICE","BIRCHWOOD MEDICAL PRACTICE","UPRN",53.2157707,-0.6053749
"992","L81120","GP PRACTICE","BIRCHWOOD MEDICAL PRACTICE","UPRN",51.446053,-2.5469575
"993","G81086","GP PRACTICE","BIRD-IN-EYE SURGERY","UPRN",50.9659535,0.1056427
"994","H83627","GP PRACTICE","BIRDHURST MEDICAL PRACTICE","UPRN",51.3659854,-0.0918399
"995","Y08385","GP PRACTICE","BIRDSFOOT LANE PHARMACY","UPRN",51.9089298,-0.4342899
"996","B85634","GP PRACTICE","BIRKBY HEALTH CENTRE","UPRN",53.6630242,-1.7958616
"997","Y07970","GP PRACTICE","BIRKENHEAD PCN EXTENDED ACCESS","UPRN",53.3806289,-3.0266491
"998","B81087","GP PRACTICE","BIRKWOOD MEDICAL CENTRE","UPRN",53.5574343,-0.1052325
"999","C88025","GP PRACTICE","BIRLEY HEALTH CENTRE","UPRN",53.340776,-1.4018968
"1000","Y04376","GP PRACTICE","BIRMINGHAM DENTAL HOSPITAL","PostCode",52.4499746259447,-1.91448187507334
"1001","A91157","GP PRACTICE","BIRMINGHAM MEDICAL FACILITY","PostCode",52.4501439796378,-1.94177628684386
"1002","Y06813","GP PRACTICE","BIRMINGHAM SMARTCARE HUB","UPRN",52.4029891,-1.9242224
"1003","Y06141","GP PRACTICE","BIRMINGHAM ST MARY'S HOSPICE","PostCode",52.4394555208854,-1.92674138566073
"1004","M85813","GP PRACTICE","BIRMINGHAM WIC","UPRN",52.4801013,-1.8948512
"1005","Y03267","GP PRACTICE","BIRSTALL DERMATOLOGY GPSI","UPRN",53.7310195,-1.6639356
"1006","C82091","GP PRACTICE","BIRSTALL MEDICAL CENTRE","UPRN",52.6759669,-1.1177017
"1007","Y02718","GP PRACTICE","BIRTLE VIEW MEDICAL PRACTICE","UPRN",53.5947026,-2.2272739
"1008","Y08624","GP PRACTICE","BIRTLEY AND CENTRAL GATESHEAD PCN HUB","UPRN",54.9540868,-1.6070914
"1009","A85008","GP PRACTICE","BIRTLEY MEDICAL GROUP","UPRN",54.8918891,-1.5764525
"1010","Y05736","GP PRACTICE","BISHOP AUCKLAND PRIMARY CARE SERVICES","PostCode",54.6476033338017,-1.66799668580165
"1011","A83025","GP PRACTICE","BISHOPGATE MEDICAL CENTRE","UPRN",54.6586913,-1.6763956
"1012","M82033","GP PRACTICE","BISHOPS CASTLE MEDICAL PRACTICE","UPRN",52.4953704,-2.995162
"1013","A83052","GP PRACTICE","BISHOPS CLOSE MEDICAL PRACTICE","UPRN",54.6998267,-1.5991522
"1014","W97028","GP PRACTICE","BISHOPS ROAD MEDICAL CENTRE","UPRN",51.5116946,-3.2190207
"1015","J82064","GP PRACTICE","BISHOPS WALTHAM SURGERY","UPRN",50.9552726,-1.212135
"1016","H85023","GP PRACTICE","BISHOPSFORD ROAD MEDICAL CENTRE","UPRN",51.3883772,-0.1812131
"1017","Y06474","GP PRACTICE","BLABY URGENT CARE CENTRE (DHU) OOH","UPRN",52.5849252,-1.2053408
"1018","M88013","GP PRACTICE","BLACK COUNTRY FAMILY PRACTICE","UPRN",52.5288611,-2.0711766
"1019","L83663","GP PRACTICE","BLACK TORRINGTON SURGERY","UPRN",50.8277068,-4.1789855
"1020","A99986","GP PRACTICE","BLACKBERRY HILL HOSPITAL - BCSS INPATIENT UNIT","UPRN",51.4831432,-2.5388334
"1021","B85025","GP PRACTICE","BLACKBURN RD.MEDICAL CTR.","UPRN",53.7310195,-1.6639356
"1022","L83044","GP PRACTICE","BLACKDOWN PRACTICE","UPRN",50.9131033,-3.2291362
"1023","A83034","GP PRACTICE","BLACKETTS MEDICAL PRACTICE","UPRN",54.5273315,-1.5592469
"1024","P83009","GP PRACTICE","BLACKFORD HOUSE MEDICAL CENTRE","UPRN",53.5742676,-2.2833209
"1025","Y02622","GP PRACTICE","BLACKFRIARS","UPRN",53.4841506,-2.2542416
"1026","G85642","GP PRACTICE","BLACKFRIARS MEDICAL PRACTICE","UPRN",51.5053653,-0.1057499
"1027","A83007","GP PRACTICE","BLACKHALL AND PETERLEE PRACTICE","UPRN",54.7469132,-1.2897466
"1028","Y07553","GP PRACTICE","BLACKHEATH CHARLTON PCN ENHANCED ACCESS","UPRN",51.4856112,0.0080734
"1029","N85648","GP PRACTICE","BLACKHEATH MED CTR","UPRN",53.4122395,-3.1046941
"1030","G83013","GP PRACTICE","BLACKHEATH STANDARD PMS","UPRN",51.4781342,0.019823
"1031","J81620","GP PRACTICE","BLACKMORE VALE PARTNERSHIP","PostCode",50.9281680146206,-2.30384796395416
"1032","Y05453","GP PRACTICE","BLACKPOOL EXTENSIVE CARE SERVICE","PostCode",53.8495522144255,-3.0335031143783
"1033","Y03811","GP PRACTICE","BLACKPOOL LOCALITY CHS","UPRN",53.8041605,-3.0483271
"1034","P81791","GP PRACTICE","BLACKPOOL SUBSTANCE MISUSE SERVICE","PostCode",53.8186039357681,-3.04404255765235
"1035","G82098","GP PRACTICE","BLACKTHORN","UPRN",51.2682698,0.4867239
"1036","Y03069","GP PRACTICE","BLACKTHORN PAIN CLINIC","PostCode",51.267649628257,0.485355917809644
"1037","F81099","GP PRACTICE","BLACKWATER MEDICAL CENTRE","UPRN",51.7283857,0.6809788
"1038","M91637","GP PRACTICE","BLACKWOOD HEALTH CENTRE","UPRN",52.579607,-1.8917085
"1039","W93011","GP PRACTICE","BLACKWOOD MEDICAL GROUP","UPRN",51.6563811,-3.1884967
"1040","Y05022","GP PRACTICE","BLADDER & BOWEL SOUTH MANCHESTER SERVICE","PostCode",53.3866307868514,-2.25563190775068
"1041","Y07811","GP PRACTICE","BLADDER AND BOWEL SERVICE","UPRN",50.8420354,-0.1897386
"1042","Y06776","GP PRACTICE","BLADDER AND BOWEL SERVICE","PostCode",51.4386804460333,-2.84098472634533
"1043","W93068","GP PRACTICE","BLAEN-Y-CWM GROUP PRACTICE","UPRN",51.7958575,-3.1719166
"1044","W93015","GP PRACTICE","BLAENAVON MEDICAL PRACTICE","UPRN",51.7733421,-3.0783404
"1045","W93115","GP PRACTICE","BLAINA MEDICAL PRACTICE","UPRN",51.7680592,-3.1611743
"1046","Y07784","GP PRACTICE","BLAKELANDS HOSPITAL","PostCode",52.0744220762074,-0.742697464394033
"1047","L84029","GP PRACTICE","BLAKENEY SURGERY","UPRN",51.7601138,-2.4778234
"1048","P81704","GP PRACTICE","BLAKEWATER HEALTHCARE","UPRN",53.7660684,-2.4748373
"1049","A91064","GP PRACTICE","BLANDFORD MEDICAL CENTRE","PostCode",50.8682925998683,-2.12510101026591
"1050","F81132","GP PRACTICE","BLANDFORD MEDICAL CENTRE","UPRN",51.8790436,0.5408436
"1051","Y07872","GP PRACTICE","BLMK APPLIANCE PRESCRIBING SERVICE","PostCode",53.3803121717447,-2.97643086052566
"1052","W00051","GP PRACTICE","BLOCK C","UPRN",51.6905213,-3.0260874
"1053","D82080","GP PRACTICE","BLOFIELD SURGERY","UPRN",52.6375924,1.4497042
"1054","P81115","GP PRACTICE","BLOOMFIELD MEDICAL CENTRE","UPRN",53.8044314,-3.0436409
"1055","M85732","GP PRACTICE","BLOOMSBURY SURGERY","UPRN",52.4932578,-1.8718871
"1056","J82646","GP PRACTICE","BLOSSOM HEALTH","UPRN",50.8614379,-0.9996701
"1057","J82084","GP PRACTICE","BLOSSOM HEALTH - GOSPORT","UPRN",50.7930513,-1.1480686
"1058","K84058","GP PRACTICE","BLOXHAM SURGERY","UPRN",52.0185675,-1.3745728
"1059","M91034","GP PRACTICE","BLOXWICH MEDICAL PRACTICE","UPRN",52.6131921,-2.0007975
"1060","Y08491","GP PRACTICE","BLOXWICH PHARMACY","UPRN",52.6173913,-2.004639
"1061","E85058","GP PRACTICE","BLUE WING FAMILY DOCTOR UNIT","PostCode",51.4682608722194,-0.371754489342963
"1062","F81746","GP PRACTICE","BLUEBELL SURGERY","UPRN",51.9164845,0.92193
"1063","Y03406","GP PRACTICE","BLUEBELL WOOD CHILDREN'S HOSPICE","UPRN",53.3672658,-1.2324634
"1064","Y05264","GP PRACTICE","BLUEBIRD LODGE","UPRN",52.0258199,1.1994317
"1065","N84020","GP PRACTICE","BLUNDELLSANDS SURGERY","UPRN",53.484501,-3.0413469
"1066","M83725","GP PRACTICE","BLURTON MEDICAL PRACTICE","UPRN",52.9725864,-2.1567718
"1067","C87616","GP PRACTICE","BLYTH ROAD MEDICAL CENTRE","UPRN",53.4223246,-1.2040098
"1068","F81683","GP PRACTICE","BLYTH'S MEADOW SURGERY","UPRN",51.8773802,0.561971
"1069","Y05469","GP PRACTICE","BMI BEARDWOOD HOSPITAL","UPRN",53.755054,-2.513172
"1070","Y06646","GP PRACTICE","BMI BEAUMONT HOSPITAL","PostCode",53.5798151705937,-2.49911923528999
"1071","Y06603","GP PRACTICE","BMI BISHOPSWOOD HOSPITAL","UPRN",51.6164548,-0.4465002
"1072","Y04413","GP PRACTICE","BMI CHAUCER HOSPITAL","UPRN",51.2617258,1.0874717
"1073","Y06607","GP PRACTICE","BMI CLEMENTINE CHURCHILL HOSPITAL","UPRN",51.5649659,-0.332681
"1074","Y05028","GP PRACTICE","BMI ESPERANCE HOSPITAL OOH","UPRN",50.7661103,0.2870452
"1075","Y06060","GP PRACTICE","BMI FAWKHAM MANOR HOSPITAL","PostCode",51.3724834485463,0.285541721516913
"1076","Y05470","GP PRACTICE","BMI GISBURNE PARK HOSPITAL","UPRN",53.9433422,-2.2675597
"1077","Y05029","GP PRACTICE","BMI HEALTHCARE BATH CLINIC","UPRN",51.3642743,-2.3320406
"1078","Y05030","GP PRACTICE","BMI HEALTHCARE RIDGEWAY HOSPITAL","UPRN",51.5253259,-1.7861506
"1079","Y02765","GP PRACTICE","BMI SOUTHEND PRIVATE HOSPITAL","UPRN",51.5507006,0.7020506
"1080","Y06362","GP PRACTICE","BMI THE HUDDERSFIELD HOSPITAL","UPRN",53.6590582,-1.799936
"1081","Y07318","GP PRACTICE","BMI THE LANCASTER HOSPITAL","UPRN",54.0432016,-2.7954037
"1082","Y05878","GP PRACTICE","BMI THE MANOR HOSPITAL","PostCode",52.1383760421167,-0.513195355726445
"1083","Y05987","GP PRACTICE","BMI-CHELSFIELD PARK HOSPITAL","PostCode",51.3584657856171,0.130846736927914
"1084","Y05988","GP PRACTICE","BMI-SHIRLEY OAKS HOSPITAL","PostCode",51.3822971665239,-0.0563519587463026
"1085","Y05986","GP PRACTICE","BMI-THE BLACKHEALTH HOSPITAL","PostCode",51.4634718170056,0.00626508768351606
"1086","Y05985","GP PRACTICE","BMI-THE SLOANE HOSPITAL","PostCode",51.4083296305525,-0.00436019543123863
"1087","Y08620","GP PRACTICE","BNSSG ADULT SPA","UPRN",51.4078485,-2.6219557
"1088","Y05313","GP PRACTICE","BNSSG COMMUNITY PAEDIATRICIANS","PostCode",51.4625891223649,-2.49994120107628
"1089","Y08198","GP PRACTICE","BOBAT PHARMACY","UPRN",50.8082596,-1.0582198
"1090","P84035","GP PRACTICE","BODEY MEDICAL CENTRE","UPRN",53.4406522,-2.2147969
"1091","Y07895","GP PRACTICE","BODMIN & 3 HARBOURS COMMUNITY NURSES","PostCode",50.4717625535213,-4.74081788645079
"1092","P91017","GP PRACTICE","BODMIN ROAD HEALTH CENTRE","UPRN",53.4275268,-2.3518931
"1093","W94010","GP PRACTICE","BODNANT SURGERY","UPRN",53.2275449,-4.1380957
"1094","W91029","GP PRACTICE","BODOWEN SURGERY","UPRN",53.2704484,-3.2175896
"1095","W94031","GP PRACTICE","BODREINALLT","UPRN",53.2807788,-3.8267233
"1096","L82036","GP PRACTICE","BODRIGGY HEALTH CENTRE","UPRN",50.1870621,-5.4128913
"1097","Y08247","GP PRACTICE","BOGNOR COASTAL ALLIANCE PCN HUB","UPRN",50.7872288,-0.6919283
"1098","Y06897","GP PRACTICE","BOGNOR HOSPITAL MINOR INJURIES UNIT","UPRN",50.7933555,-0.6753976
"1099","H82020","GP PRACTICE","BOGNOR MEDICAL CENTRE","UPRN",50.7836184,-0.6772186
"1100","F84050","GP PRACTICE","BOLEYN MEDICAL CENTRE","UPRN",51.5313647,0.045638
"1101","H85077","GP PRACTICE","BOLINGBROKE MEDICAL CENTRE","UPRN",51.4563719,-0.1679323
"1102","Y07389","GP PRACTICE","BOLTON ADULT ADHD SERVICE","UPRN",53.6468354,-2.3922002
"1103","A99978","GP PRACTICE","BOLTON BCSC","UPRN",53.5539733,-2.4298913
"1104","Y03079","GP PRACTICE","BOLTON COMMUNITY PRACTICE","PostCode",53.5925157849477,-2.42463459799162
"1105","Y02319","GP PRACTICE","BOLTON GENERAL PRACTICE","PostCode",53.5776481975985,-2.43487627253011
"1106","Y05353","GP PRACTICE","BOLTON GP FED WEEKEND SERVICE OOH","PostCode",53.5769073324245,-2.42846516722081
"1107","P82654","GP PRACTICE","BOLTON HOSPICE","UPRN",53.5812973,-2.4423277
"1108","Y02790","GP PRACTICE","BOLTON MEDICAL CENTRE","UPRN",53.5659759,-2.4314778
"1109","Y00934","GP PRACTICE","BOLTON OOH","PostCode",53.5925157849477,-2.42463459799162
"1110","Y01245","GP PRACTICE","BOLTON PCT FAMILY PLANNING SERVICE","UPRN",53.5768797,-2.4311963
"1111","Y08433","GP PRACTICE","BONAMY PHARMACY","UPRN",51.4864579,-0.0625444
"1112","Y02416","GP PRACTICE","BONE HEALTH SERVICE","UPRN",51.8663862,-2.2320693
"1113","W00157","GP PRACTICE","BONYMAEN CLINIC","UPRN",51.6424681,-3.9097842
"1114","P92605","GP PRACTICE","BOOTHSTOWN MEDICAL CENTRE","PostCode",53.5113673495379,-2.4324779905744
"1115","N84015","GP PRACTICE","BOOTLE VILLAGE SURGERY","UPRN",53.4495916,-2.9896718
"1116","Y08322","GP PRACTICE","BOOTS","UPRN",50.391617,-3.9204775
"1117","Y08325","GP PRACTICE","BOOTS","PostCode",50.7254981464829,-3.5279311766539
"1118","Y08461","GP PRACTICE","BOOTS","UPRN",54.9739116,-1.6138796
"1119","Y08417","GP PRACTICE","BOOTS","PostCode",53.3877302333476,-2.35010647881639
"1120","Y08271","GP PRACTICE","BOOTS","UPRN",53.5919411,-0.6456038
"1121","Y08318","GP PRACTICE","BOOTS","UPRN",50.3784799,-4.9437113
"1122","Y08300","GP PRACTICE","BOOTS","UPRN",51.3784399,-2.3590085
"1123","Y08332","GP PRACTICE","BOOTS","PostCode",51.707782912991,-1.78104788764267
"1124","Y08463","GP PRACTICE","BOOTS","UPRN",54.7770559,-1.5749459
"1125","Y08335","GP PRACTICE","BOOTS","UPRN",51.014049,-3.103942
"1126","Y07831","GP PRACTICE","BOOTS OPTICIAN","UPRN",52.6266678,1.2960602
"1127","Y04262","GP PRACTICE","BOOTS OPTICIANS","UPRN",53.7542441,-2.3661915
"1128","M85781","GP PRACTICE","BORDESLEY GREEN SURGERY","UPRN",52.4768285,-1.8549163
"1129","Y05663","GP PRACTICE","BORNO ANTICOAGULATION SERVICE","PostCode",51.3714412119545,1.12116648644851
"1130","Y07940","GP PRACTICE","BOROUGH GREEN GYNAE CLINIC","UPRN",51.2902221,0.3034832
"1131","G82120","GP PRACTICE","BOROUGH GREEN MEDICAL PRACTICE","UPRN",51.2902221,0.3034832
"1132","A81030","GP PRACTICE","BOROUGH ROAD & NUNTHORPE MEDICAL GROUP","UPRN",54.5719788,-1.227224
"1133","D81026","GP PRACTICE","BOROUGHBURY MEDICAL CENTRE","UPRN",52.577905,-0.2444325
"1134","W91054","GP PRACTICE","BORRAS PARK SURGERY","UPRN",53.0609234,-2.9691615
"1135","G82711","GP PRACTICE","BORSTAL VILLAGE SURGERY","UPRN",51.3720204,0.4820824
"1136","W92006","GP PRACTICE","BORTH SURGERY","PostCode",52.4860885547252,-4.05111015320576
"1137","Y06238","GP PRACTICE","BOSTON GP EXTENDED ACCESS HUB","PostCode",52.9759161490286,-0.0335295560865432
"1138","Y08581","GP PRACTICE","BOSTON PCN EXTENDED ACCESS","UPRN",52.9402445,-0.15881
"1139","Y05870","GP PRACTICE","BOSTON UTC","UPRN",52.9911473,-0.0099577
"1140","Y07091","GP PRACTICE","BOSTON WEST HOSPITAL","PostCode",52.9759161490286,-0.0335295560865432
"1141","L82010","GP PRACTICE","BOSVENA HEALTH","PostCode",50.4719266000261,-4.72003806088019
"1142","M89008","GP PRACTICE","BOSWORTH MEDICAL GROUP","UPRN",52.4806632,-1.752845
"1143","Y07146","GP PRACTICE","BOSWORTH PCN WL EA SERVICE","UPRN",52.6443763,-1.2391762
"1144","D83033","GP PRACTICE","BOTESDALE HEALTH CENTRE","UPRN",52.3453754,1.0070804
"1145","Y00486","GP PRACTICE","BOTOLPH BRIDGE COMMUNITY HEALTH CENTRE","UPRN",52.5627515,-0.2617586
"1146","D81055","GP PRACTICE","BOTTISHAM MEDICAL PRACTICE","UPRN",52.225143,0.2611968
